$GPGGA,154845.140,4058.296,N,11126.389,W,1,12,1.0,0.0,M,0.0,M,,*73
$GPGSA,A,3,01,02,03,04,05,06,07,08,09,10,11,12,1.0,1.0,1.0*30
$GPRMC,154845.140,A,4058.296,N,11126.389,W,038.9,060.7,100120,000.0,W*66
$GPGGA,154846.140,4058.303,N,11126.378,W,1,12,1.0,0.0,M,0.0,M,,*73
$GPGSA,A,3,01,02,03,04,05,06,07,08,09,10,11,12,1.0,1.0,1.0*30
$GPRMC,154846.140,A,4058.303,N,11126.378,W,038.9,060.7,100120,000.0,W*66
$GPGGA,154847.140,4058.309,N,11126.366,W,1,12,1.0,0.0,M,0.0,M,,*77
$GPGSA,A,3,01,02,03,04,05,06,07,08,09,10,11,12,1.0,1.0,1.0*30
$GPRMC,154847.140,A,4058.309,N,11126.366,W,038.9,060.7,100120,000.0,W*62
$GPGGA,154848.140,4058.315,N,11126.355,W,1,12,1.0,0.0,M,0.0,M,,*75
$GPGSA,A,3,01,02,03,04,05,06,07,08,09,10,11,12,1.0,1.0,1.0*30
$GPRMC,154848.140,A,4058.315,N,11126.355,W,038.9,060.7,100120,000.0,W*60
$GPGGA,154849.140,4058.322,N,11126.343,W,1,12,1.0,0.0,M,0.0,M,,*77
$GPGSA,A,3,01,02,03,04,05,06,07,08,09,10,11,12,1.0,1.0,1.0*30
$GPRMC,154849.140,A,4058.322,N,11126.343,W,038.9,060.7,100120,000.0,W*62
$GPGGA,154850.140,4058.328,N,11126.332,W,1,12,1.0,0.0,M,0.0,M,,*73
$GPGSA,A,3,01,02,03,04,05,06,07,08,09,10,11,12,1.0,1.0,1.0*30
$GPRMC,154850.140,A,4058.328,N,11126.332,W,038.9,060.7,100120,000.0,W*66
$GPGGA,154851.140,4058.335,N,11126.320,W,1,12,1.0,0.0,M,0.0,M,,*7D
$GPGSA,A,3,01,02,03,04,05,06,07,08,09,10,11,12,1.0,1.0,1.0*30
$GPRMC,154851.140,A,4058.335,N,11126.320,W,038.9,060.7,100120,000.0,W*68
$GPGGA,154852.140,4058.341,N,11126.309,W,1,12,1.0,0.0,M,0.0,M,,*76
$GPGSA,A,3,01,02,03,04,05,06,07,08,09,10,11,12,1.0,1.0,1.0*30
$GPRMC,154852.140,A,4058.341,N,11126.309,W,038.9,060.7,100120,000.0,W*63
$GPGGA,154853.140,4058.348,N,11126.297,W,1,12,1.0,0.0,M,0.0,M,,*78
$GPGSA,A,3,01,02,03,04,05,06,07,08,09,10,11,12,1.0,1.0,1.0*30
$GPRMC,154853.140,A,4058.348,N,11126.297,W,038.9,060.7,100120,000.0,W*6D
$GPGGA,154854.140,4058.354,N,11126.286,W,1,12,1.0,0.0,M,0.0,M,,*72
$GPGSA,A,3,01,02,03,04,05,06,07,08,09,10,11,12,1.0,1.0,1.0*30
$GPRMC,154854.140,A,4058.354,N,11126.286,W,038.9,060.7,100120,000.0,W*67
$GPGGA,154855.140,4058.360,N,11126.274,W,1,12,1.0,0.0,M,0.0,M,,*79
$GPGSA,A,3,01,02,03,04,05,06,07,08,09,10,11,12,1.0,1.0,1.0*30
$GPRMC,154855.140,A,4058.360,N,11126.274,W,038.9,060.7,100120,000.0,W*6C
$GPGGA,154856.140,4058.367,N,11126.263,W,1,12,1.0,0.0,M,0.0,M,,*7B
$GPGSA,A,3,01,02,03,04,05,06,07,08,09,10,11,12,1.0,1.0,1.0*30
$GPRMC,154856.140,A,4058.367,N,11126.263,W,038.9,060.7,100120,000.0,W*6E
$GPGGA,154857.140,4058.373,N,11126.251,W,1,12,1.0,0.0,M,0.0,M,,*7E
$GPGSA,A,3,01,02,03,04,05,06,07,08,09,10,11,12,1.0,1.0,1.0*30
$GPRMC,154857.140,A,4058.373,N,11126.251,W,038.9,060.7,100120,000.0,W*6B
$GPGGA,154858.140,4058.380,N,11126.240,W,1,12,1.0,0.0,M,0.0,M,,*7D
$GPGSA,A,3,01,02,03,04,05,06,07,08,09,10,11,12,1.0,1.0,1.0*30
$GPRMC,154858.140,A,4058.380,N,11126.240,W,038.9,060.7,100120,000.0,W*68
$GPGGA,154859.140,4058.386,N,11126.228,W,1,12,1.0,0.0,M,0.0,M,,*74
$GPGSA,A,3,01,02,03,04,05,06,07,08,09,10,11,12,1.0,1.0,1.0*30
$GPRMC,154859.140,A,4058.386,N,11126.228,W,038.9,060.7,100120,000.0,W*61
$GPGGA,154900.140,4058.393,N,11126.217,W,1,12,1.0,0.0,M,0.0,M,,*71
$GPGSA,A,3,01,02,03,04,05,06,07,08,09,10,11,12,1.0,1.0,1.0*30
$GPRMC,154900.140,A,4058.393,N,11126.217,W,038.9,060.7,100120,000.0,W*64
$GPGGA,154901.140,4058.399,N,11126.205,W,1,12,1.0,0.0,M,0.0,M,,*79
$GPGSA,A,3,01,02,03,04,05,06,07,08,09,10,11,12,1.0,1.0,1.0*30
$GPRMC,154901.140,A,4058.399,N,11126.205,W,038.9,060.7,100120,000.0,W*6C
$GPGGA,154902.140,4058.405,N,11126.194,W,1,12,1.0,0.0,M,0.0,M,,*73
$GPGSA,A,3,01,02,03,04,05,06,07,08,09,10,11,12,1.0,1.0,1.0*30
$GPRMC,154902.140,A,4058.405,N,11126.194,W,038.9,060.7,100120,000.0,W*66
$GPGGA,154903.140,4058.412,N,11126.182,W,1,12,1.0,0.0,M,0.0,M,,*73
$GPGSA,A,3,01,02,03,04,05,06,07,08,09,10,11,12,1.0,1.0,1.0*30
$GPRMC,154903.140,A,4058.412,N,11126.182,W,038.9,060.7,100120,000.0,W*66
$GPGGA,154904.140,4058.418,N,11126.171,W,1,12,1.0,0.0,M,0.0,M,,*72
$GPGSA,A,3,01,02,03,04,05,06,07,08,09,10,11,12,1.0,1.0,1.0*30
$GPRMC,154904.140,A,4058.418,N,11126.171,W,038.9,060.7,100120,000.0,W*67
$GPGGA,154905.140,4058.425,N,11126.159,W,1,12,1.0,0.0,M,0.0,M,,*77
$GPGSA,A,3,01,02,03,04,05,06,07,08,09,10,11,12,1.0,1.0,1.0*30
$GPRMC,154905.140,A,4058.425,N,11126.159,W,038.9,060.7,100120,000.0,W*62
$GPGGA,154906.140,4058.431,N,11126.148,W,1,12,1.0,0.0,M,0.0,M,,*71
$GPGSA,A,3,01,02,03,04,05,06,07,08,09,10,11,12,1.0,1.0,1.0*30
$GPRMC,154906.140,A,4058.431,N,11126.148,W,038.9,060.7,100120,000.0,W*64
$GPGGA,154907.140,4058.438,N,11126.136,W,1,12,1.0,0.0,M,0.0,M,,*70
$GPGSA,A,3,01,02,03,04,05,06,07,08,09,10,11,12,1.0,1.0,1.0*30
$GPRMC,154907.140,A,4058.438,N,11126.136,W,038.9,060.7,100120,000.0,W*65
$GPGGA,154908.140,4058.444,N,11126.125,W,1,12,1.0,0.0,M,0.0,M,,*76
$GPGSA,A,3,01,02,03,04,05,06,07,08,09,10,11,12,1.0,1.0,1.0*30
$GPRMC,154908.140,A,4058.444,N,11126.125,W,038.9,060.7,100120,000.0,W*63
$GPGGA,154909.140,4058.450,N,11126.113,W,1,12,1.0,0.0,M,0.0,M,,*77
$GPGSA,A,3,01,02,03,04,05,06,07,08,09,10,11,12,1.0,1.0,1.0*30
$GPRMC,154909.140,A,4058.450,N,11126.113,W,038.9,060.7,100120,000.0,W*62
$GPGGA,154910.140,4058.457,N,11126.102,W,1,12,1.0,0.0,M,0.0,M,,*78
$GPGSA,A,3,01,02,03,04,05,06,07,08,09,10,11,12,1.0,1.0,1.0*30
$GPRMC,154910.140,A,4058.457,N,11126.102,W,038.9,060.7,100120,000.0,W*6D
$GPGGA,154911.140,4058.463,N,11126.090,W,1,12,1.0,0.0,M,0.0,M,,*74
$GPGSA,A,3,01,02,03,04,05,06,07,08,09,10,11,12,1.0,1.0,1.0*30
$GPRMC,154911.140,A,4058.463,N,11126.090,W,038.9,060.7,100120,000.0,W*61
$GPGGA,154912.140,4058.470,N,11126.079,W,1,12,1.0,0.0,M,0.0,M,,*72
$GPGSA,A,3,01,02,03,04,05,06,07,08,09,10,11,12,1.0,1.0,1.0*30
$GPRMC,154912.140,A,4058.470,N,11126.079,W,038.9,060.7,100120,000.0,W*67
$GPGGA,154913.140,4058.476,N,11126.067,W,1,12,1.0,0.0,M,0.0,M,,*7A
$GPGSA,A,3,01,02,03,04,05,06,07,08,09,10,11,12,1.0,1.0,1.0*30
$GPRMC,154913.140,A,4058.476,N,11126.067,W,038.9,060.7,100120,000.0,W*6F
$GPGGA,154914.140,4058.483,N,11126.056,W,1,12,1.0,0.0,M,0.0,M,,*75
$GPGSA,A,3,01,02,03,04,05,06,07,08,09,10,11,12,1.0,1.0,1.0*30
$GPRMC,154914.140,A,4058.483,N,11126.056,W,038.9,060.7,100120,000.0,W*60
$GPGGA,154915.140,4058.489,N,11126.044,W,1,12,1.0,0.0,M,0.0,M,,*7D
$GPGSA,A,3,01,02,03,04,05,06,07,08,09,10,11,12,1.0,1.0,1.0*30
$GPRMC,154915.140,A,4058.489,N,11126.044,W,038.9,060.7,100120,000.0,W*68
$GPGGA,154916.140,4058.495,N,11126.033,W,1,12,1.0,0.0,M,0.0,M,,*73
$GPGSA,A,3,01,02,03,04,05,06,07,08,09,10,11,12,1.0,1.0,1.0*30
$GPRMC,154916.140,A,4058.495,N,11126.033,W,038.9,060.7,100120,000.0,W*66
$GPGGA,154917.140,4058.502,N,11126.021,W,1,12,1.0,0.0,M,0.0,M,,*7E
$GPGSA,A,3,01,02,03,04,05,06,07,08,09,10,11,12,1.0,1.0,1.0*30
$GPRMC,154917.140,A,4058.502,N,11126.021,W,038.9,060.7,100120,000.0,W*6B
$GPGGA,154918.140,4058.508,N,11126.010,W,1,12,1.0,0.0,M,0.0,M,,*79
$GPGSA,A,3,01,02,03,04,05,06,07,08,09,10,11,12,1.0,1.0,1.0*30
$GPRMC,154918.140,A,4058.508,N,11126.010,W,038.9,060.7,100120,000.0,W*6C
$GPGGA,154919.140,4058.515,N,11125.998,W,1,12,1.0,0.0,M,0.0,M,,*7E
$GPGSA,A,3,01,02,03,04,05,06,07,08,09,10,11,12,1.0,1.0,1.0*30
$GPRMC,154919.140,A,4058.515,N,11125.998,W,038.9,060.7,100120,000.0,W*6B
$GPGGA,154920.140,4058.521,N,11125.987,W,1,12,1.0,0.0,M,0.0,M,,*7D
$GPGSA,A,3,01,02,03,04,05,06,07,08,09,10,11,12,1.0,1.0,1.0*30
$GPRMC,154920.140,A,4058.521,N,11125.987,W,038.9,060.7,100120,000.0,W*68
$GPGGA,154921.140,4058.528,N,11125.975,W,1,12,1.0,0.0,M,0.0,M,,*78
$GPGSA,A,3,01,02,03,04,05,06,07,08,09,10,11,12,1.0,1.0,1.0*30
$GPRMC,154921.140,A,4058.528,N,11125.975,W,038.9,060.7,100120,000.0,W*6D
$GPGGA,154922.140,4058.534,N,11125.964,W,1,12,1.0,0.0,M,0.0,M,,*76
$GPGSA,A,3,01,02,03,04,05,06,07,08,09,10,11,12,1.0,1.0,1.0*30
$GPRMC,154922.140,A,4058.534,N,11125.964,W,038.9,060.7,100120,000.0,W*63
$GPGGA,154923.140,4058.540,N,11125.952,W,1,12,1.0,0.0,M,0.0,M,,*71
$GPGSA,A,3,01,02,03,04,05,06,07,08,09,10,11,12,1.0,1.0,1.0*30
$GPRMC,154923.140,A,4058.540,N,11125.952,W,038.9,060.7,100120,000.0,W*64
$GPGGA,154924.140,4058.547,N,11125.941,W,1,12,1.0,0.0,M,0.0,M,,*73
$GPGSA,A,3,01,02,03,04,05,06,07,08,09,10,11,12,1.0,1.0,1.0*30
$GPRMC,154924.140,A,4058.547,N,11125.941,W,038.9,060.7,100120,000.0,W*66
$GPGGA,154925.140,4058.553,N,11125.929,W,1,12,1.0,0.0,M,0.0,M,,*79
$GPGSA,A,3,01,02,03,04,05,06,07,08,09,10,11,12,1.0,1.0,1.0*30
$GPRMC,154925.140,A,4058.553,N,11125.929,W,038.9,060.7,100120,000.0,W*6C
$GPGGA,154926.140,4058.560,N,11125.918,W,1,12,1.0,0.0,M,0.0,M,,*78
$GPGSA,A,3,01,02,03,04,05,06,07,08,09,10,11,12,1.0,1.0,1.0*30
$GPRMC,154926.140,A,4058.560,N,11125.918,W,038.9,060.7,100120,000.0,W*6D
$GPGGA,154927.140,4058.566,N,11125.906,W,1,12,1.0,0.0,M,0.0,M,,*70
$GPGSA,A,3,01,02,03,04,05,06,07,08,09,10,11,12,1.0,1.0,1.0*30
$GPRMC,154927.140,A,4058.566,N,11125.906,W,038.9,060.7,100120,000.0,W*65
$GPGGA,154928.140,4058.572,N,11125.895,W,1,12,1.0,0.0,M,0.0,M,,*71
$GPGSA,A,3,01,02,03,04,05,06,07,08,09,10,11,12,1.0,1.0,1.0*30
$GPRMC,154928.140,A,4058.572,N,11125.895,W,038.9,060.7,100120,000.0,W*64
$GPGGA,154929.140,4058.579,N,11125.883,W,1,12,1.0,0.0,M,0.0,M,,*7C
$GPGSA,A,3,01,02,03,04,05,06,07,08,09,10,11,12,1.0,1.0,1.0*30
$GPRMC,154929.140,A,4058.579,N,11125.883,W,038.9,060.7,100120,000.0,W*69
$GPGGA,154930.140,4058.585,N,11125.872,W,1,12,1.0,0.0,M,0.0,M,,*79
$GPGSA,A,3,01,02,03,04,05,06,07,08,09,10,11,12,1.0,1.0,1.0*30
$GPRMC,154930.140,A,4058.585,N,11125.872,W,038.9,060.7,100120,000.0,W*6C
$GPGGA,154931.140,4058.592,N,11125.860,W,1,12,1.0,0.0,M,0.0,M,,*7D
$GPGSA,A,3,01,02,03,04,05,06,07,08,09,10,11,12,1.0,1.0,1.0*30
$GPRMC,154931.140,A,4058.592,N,11125.860,W,038.9,060.7,100120,000.0,W*68
$GPGGA,154932.140,4058.598,N,11125.849,W,1,12,1.0,0.0,M,0.0,M,,*7F
$GPGSA,A,3,01,02,03,04,05,06,07,08,09,10,11,12,1.0,1.0,1.0*30
$GPRMC,154932.140,A,4058.598,N,11125.849,W,038.9,060.7,100120,000.0,W*6A
$GPGGA,154933.140,4058.605,N,11125.837,W,1,12,1.0,0.0,M,0.0,M,,*70
$GPGSA,A,3,01,02,03,04,05,06,07,08,09,10,11,12,1.0,1.0,1.0*30
$GPRMC,154933.140,A,4058.605,N,11125.837,W,038.9,060.7,100120,000.0,W*65
$GPGGA,154934.140,4058.611,N,11125.826,W,1,12,1.0,0.0,M,0.0,M,,*72
$GPGSA,A,3,01,02,03,04,05,06,07,08,09,10,11,12,1.0,1.0,1.0*30
$GPRMC,154934.140,A,4058.611,N,11125.826,W,038.9,060.7,100120,000.0,W*67
$GPGGA,154935.140,4058.617,N,11125.814,W,1,12,1.0,0.0,M,0.0,M,,*74
$GPGSA,A,3,01,02,03,04,05,06,07,08,09,10,11,12,1.0,1.0,1.0*30
$GPRMC,154935.140,A,4058.617,N,11125.814,W,038.9,060.7,100120,000.0,W*61
$GPGGA,154936.140,4058.624,N,11125.803,W,1,12,1.0,0.0,M,0.0,M,,*71
$GPGSA,A,3,01,02,03,04,05,06,07,08,09,10,11,12,1.0,1.0,1.0*30
$GPRMC,154936.140,A,4058.624,N,11125.803,W,038.9,060.7,100120,000.0,W*64
$GPGGA,154937.140,4058.630,N,11125.791,W,1,12,1.0,0.0,M,0.0,M,,*71
$GPGSA,A,3,01,02,03,04,05,06,07,08,09,10,11,12,1.0,1.0,1.0*30
$GPRMC,154937.140,A,4058.630,N,11125.791,W,038.9,060.7,100120,000.0,W*64
$GPGGA,154938.140,4058.637,N,11125.780,W,1,12,1.0,0.0,M,0.0,M,,*79
$GPGSA,A,3,01,02,03,04,05,06,07,08,09,10,11,12,1.0,1.0,1.0*30
$GPRMC,154938.140,A,4058.637,N,11125.780,W,038.9,060.7,100120,000.0,W*6C
$GPGGA,154939.140,4058.643,N,11125.768,W,1,12,1.0,0.0,M,0.0,M,,*7D
$GPGSA,A,3,01,02,03,04,05,06,07,08,09,10,11,12,1.0,1.0,1.0*30
$GPRMC,154939.140,A,4058.643,N,11125.768,W,038.9,060.7,100120,000.0,W*68
$GPGGA,154940.140,4058.650,N,11125.757,W,1,12,1.0,0.0,M,0.0,M,,*7D
$GPGSA,A,3,01,02,03,04,05,06,07,08,09,10,11,12,1.0,1.0,1.0*30
$GPRMC,154940.140,A,4058.650,N,11125.757,W,038.9,060.7,100120,000.0,W*68
$GPGGA,154941.140,4058.656,N,11125.745,W,1,12,1.0,0.0,M,0.0,M,,*79
$GPGSA,A,3,01,02,03,04,05,06,07,08,09,10,11,12,1.0,1.0,1.0*30
$GPRMC,154941.140,A,4058.656,N,11125.745,W,038.9,060.7,100120,000.0,W*6C
$GPGGA,154942.140,4058.662,N,11125.734,W,1,12,1.0,0.0,M,0.0,M,,*7B
$GPGSA,A,3,01,02,03,04,05,06,07,08,09,10,11,12,1.0,1.0,1.0*30
$GPRMC,154942.140,A,4058.662,N,11125.734,W,038.9,060.7,100120,000.0,W*6E
$GPGGA,154943.140,4058.669,N,11125.722,W,1,12,1.0,0.0,M,0.0,M,,*76
$GPGSA,A,3,01,02,03,04,05,06,07,08,09,10,11,12,1.0,1.0,1.0*30
$GPRMC,154943.140,A,4058.669,N,11125.722,W,038.9,060.7,100120,000.0,W*63
$GPGGA,154944.140,4058.675,N,11125.711,W,1,12,1.0,0.0,M,0.0,M,,*7C
$GPGSA,A,3,01,02,03,04,05,06,07,08,09,10,11,12,1.0,1.0,1.0*30
$GPRMC,154944.140,A,4058.675,N,11125.711,W,038.9,060.7,100120,000.0,W*69
$GPGGA,154945.140,4058.682,N,11125.699,W,1,12,1.0,0.0,M,0.0,M,,*74
$GPGSA,A,3,01,02,03,04,05,06,07,08,09,10,11,12,1.0,1.0,1.0*30
$GPRMC,154945.140,A,4058.682,N,11125.699,W,038.9,060.7,100120,000.0,W*61
$GPGGA,154946.140,4058.688,N,11125.688,W,1,12,1.0,0.0,M,0.0,M,,*7D
$GPGSA,A,3,01,02,03,04,05,06,07,08,09,10,11,12,1.0,1.0,1.0*30
$GPRMC,154946.140,A,4058.688,N,11125.688,W,038.9,060.7,100120,000.0,W*68
$GPGGA,154947.140,4058.695,N,11125.676,W,1,12,1.0,0.0,M,0.0,M,,*71
$GPGSA,A,3,01,02,03,04,05,06,07,08,09,10,11,12,1.0,1.0,1.0*30
$GPRMC,154947.140,A,4058.695,N,11125.676,W,038.9,060.7,100120,000.0,W*64
$GPGGA,154948.140,4058.701,N,11125.664,W,1,12,1.0,0.0,M,0.0,M,,*71
$GPGSA,A,3,01,02,03,04,05,06,07,08,09,10,11,12,1.0,1.0,1.0*30
$GPRMC,154948.140,A,4058.701,N,11125.664,W,038.9,060.7,100120,000.0,W*64
$GPGGA,154949.140,4058.707,N,11125.653,W,1,12,1.0,0.0,M,0.0,M,,*72
$GPGSA,A,3,01,02,03,04,05,06,07,08,09,10,11,12,1.0,1.0,1.0*30
$GPRMC,154949.140,A,4058.707,N,11125.653,W,038.9,060.7,100120,000.0,W*67
$GPGGA,154950.140,4058.714,N,11125.641,W,1,12,1.0,0.0,M,0.0,M,,*7B
$GPGSA,A,3,01,02,03,04,05,06,07,08,09,10,11,12,1.0,1.0,1.0*30
$GPRMC,154950.140,A,4058.714,N,11125.641,W,038.9,060.7,100120,000.0,W*6E
$GPGGA,154951.140,4058.720,N,11125.630,W,1,12,1.0,0.0,M,0.0,M,,*7B
$GPGSA,A,3,01,02,03,04,05,06,07,08,09,10,11,12,1.0,1.0,1.0*30
$GPRMC,154951.140,A,4058.720,N,11125.630,W,038.9,060.7,100120,000.0,W*6E
$GPGGA,154952.140,4058.727,N,11125.618,W,1,12,1.0,0.0,M,0.0,M,,*75
$GPGSA,A,3,01,02,03,04,05,06,07,08,09,10,11,12,1.0,1.0,1.0*30
$GPRMC,154952.140,A,4058.727,N,11125.618,W,038.9,060.7,100120,000.0,W*60
$GPGGA,154953.140,4058.733,N,11125.607,W,1,12,1.0,0.0,M,0.0,M,,*7F
$GPGSA,A,3,01,02,03,04,05,06,07,08,09,10,11,12,1.0,1.0,1.0*30
$GPRMC,154953.140,A,4058.733,N,11125.607,W,038.9,060.7,100120,000.0,W*6A
$GPGGA,154954.140,4058.740,N,11125.595,W,1,12,1.0,0.0,M,0.0,M,,*74
$GPGSA,A,3,01,02,03,04,05,06,07,08,09,10,11,12,1.0,1.0,1.0*30
$GPRMC,154954.140,A,4058.740,N,11125.595,W,038.9,060.7,100120,000.0,W*61
$GPGGA,154955.140,4058.746,N,11125.584,W,1,12,1.0,0.0,M,0.0,M,,*73
$GPGSA,A,3,01,02,03,04,05,06,07,08,09,10,11,12,1.0,1.0,1.0*30
$GPRMC,154955.140,A,4058.746,N,11125.584,W,038.9,060.7,100120,000.0,W*66
$GPGGA,154956.140,4058.752,N,11125.572,W,1,12,1.0,0.0,M,0.0,M,,*7C
$GPGSA,A,3,01,02,03,04,05,06,07,08,09,10,11,12,1.0,1.0,1.0*30
$GPRMC,154956.140,A,4058.752,N,11125.572,W,038.9,060.7,100120,000.0,W*69
$GPGGA,154957.140,4058.759,N,11125.561,W,1,12,1.0,0.0,M,0.0,M,,*74
$GPGSA,A,3,01,02,03,04,05,06,07,08,09,10,11,12,1.0,1.0,1.0*30
$GPRMC,154957.140,A,4058.759,N,11125.561,W,038.9,060.7,100120,000.0,W*61
$GPGGA,154958.140,4058.765,N,11125.549,W,1,12,1.0,0.0,M,0.0,M,,*7E
$GPGSA,A,3,01,02,03,04,05,06,07,08,09,10,11,12,1.0,1.0,1.0*30
$GPRMC,154958.140,A,4058.765,N,11125.549,W,038.9,060.7,100120,000.0,W*6B
$GPGGA,154959.140,4058.772,N,11125.538,W,1,12,1.0,0.0,M,0.0,M,,*7F
$GPGSA,A,3,01,02,03,04,05,06,07,08,09,10,11,12,1.0,1.0,1.0*30
$GPRMC,154959.140,A,4058.772,N,11125.538,W,038.9,060.7,100120,000.0,W*6A
$GPGGA,155000.140,4058.778,N,11125.526,W,1,12,1.0,0.0,M,0.0,M,,*7E
$GPGSA,A,3,01,02,03,04,05,06,07,08,09,10,11,12,1.0,1.0,1.0*30
$GPRMC,155000.140,A,4058.778,N,11125.526,W,038.9,060.7,100120,000.0,W*6B
$GPGGA,155001.140,4058.785,N,11125.515,W,1,12,1.0,0.0,M,0.0,M,,*7D
$GPGSA,A,3,01,02,03,04,05,06,07,08,09,10,11,12,1.0,1.0,1.0*30
$GPRMC,155001.140,A,4058.785,N,11125.515,W,038.9,060.7,100120,000.0,W*68
$GPGGA,155002.140,4058.791,N,11125.503,W,1,12,1.0,0.0,M,0.0,M,,*7C
$GPGSA,A,3,01,02,03,04,05,06,07,08,09,10,11,12,1.0,1.0,1.0*30
$GPRMC,155002.140,A,4058.791,N,11125.503,W,038.9,060.7,100120,000.0,W*69
$GPGGA,155003.140,4058.797,N,11125.492,W,1,12,1.0,0.0,M,0.0,M,,*72
$GPGSA,A,3,01,02,03,04,05,06,07,08,09,10,11,12,1.0,1.0,1.0*30
$GPRMC,155003.140,A,4058.797,N,11125.492,W,038.9,060.7,100120,000.0,W*67
$GPGGA,155004.140,4058.804,N,11125.480,W,1,12,1.0,0.0,M,0.0,M,,*73
$GPGSA,A,3,01,02,03,04,05,06,07,08,09,10,11,12,1.0,1.0,1.0*30
$GPRMC,155004.140,A,4058.804,N,11125.480,W,038.9,060.7,100120,000.0,W*66
$GPGGA,155005.140,4058.810,N,11125.469,W,1,12,1.0,0.0,M,0.0,M,,*70
$GPGSA,A,3,01,02,03,04,05,06,07,08,09,10,11,12,1.0,1.0,1.0*30
$GPRMC,155005.140,A,4058.810,N,11125.469,W,038.9,060.7,100120,000.0,W*65
$GPGGA,155006.140,4058.817,N,11125.457,W,1,12,1.0,0.0,M,0.0,M,,*79
$GPGSA,A,3,01,02,03,04,05,06,07,08,09,10,11,12,1.0,1.0,1.0*30
$GPRMC,155006.140,A,4058.817,N,11125.457,W,038.9,060.7,100120,000.0,W*6C
$GPGGA,155007.140,4058.823,N,11125.446,W,1,12,1.0,0.0,M,0.0,M,,*7F
$GPGSA,A,3,01,02,03,04,05,06,07,08,09,10,11,12,1.0,1.0,1.0*30
$GPRMC,155007.140,A,4058.823,N,11125.446,W,038.9,060.7,100120,000.0,W*6A
$GPGGA,155008.140,4058.829,N,11125.434,W,1,12,1.0,0.0,M,0.0,M,,*7F
$GPGSA,A,3,01,02,03,04,05,06,07,08,09,10,11,12,1.0,1.0,1.0*30
$GPRMC,155008.140,A,4058.829,N,11125.434,W,038.9,060.7,100120,000.0,W*6A
$GPGGA,155009.140,4058.836,N,11125.423,W,1,12,1.0,0.0,M,0.0,M,,*76
$GPGSA,A,3,01,02,03,04,05,06,07,08,09,10,11,12,1.0,1.0,1.0*30
$GPRMC,155009.140,A,4058.836,N,11125.423,W,038.9,060.7,100120,000.0,W*63
$GPGGA,155010.140,4058.842,N,11125.411,W,1,12,1.0,0.0,M,0.0,M,,*7C
$GPGSA,A,3,01,02,03,04,05,06,07,08,09,10,11,12,1.0,1.0,1.0*30
$GPRMC,155010.140,A,4058.842,N,11125.411,W,038.9,060.7,100120,000.0,W*69
$GPGGA,155011.140,4058.849,N,11125.400,W,1,12,1.0,0.0,M,0.0,M,,*76
$GPGSA,A,3,01,02,03,04,05,06,07,08,09,10,11,12,1.0,1.0,1.0*30
$GPRMC,155011.140,A,4058.849,N,11125.400,W,038.9,060.7,100120,000.0,W*63
$GPGGA,155012.140,4058.855,N,11125.388,W,1,12,1.0,0.0,M,0.0,M,,*7F
$GPGSA,A,3,01,02,03,04,05,06,07,08,09,10,11,12,1.0,1.0,1.0*30
$GPRMC,155012.140,A,4058.855,N,11125.388,W,038.9,060.7,100120,000.0,W*6A
$GPGGA,155013.140,4058.862,N,11125.377,W,1,12,1.0,0.0,M,0.0,M,,*7A
$GPGSA,A,3,01,02,03,04,05,06,07,08,09,10,11,12,1.0,1.0,1.0*30
$GPRMC,155013.140,A,4058.862,N,11125.377,W,038.9,060.7,100120,000.0,W*6F
$GPGGA,155014.140,4058.868,N,11125.365,W,1,12,1.0,0.0,M,0.0,M,,*74
$GPGSA,A,3,01,02,03,04,05,06,07,08,09,10,11,12,1.0,1.0,1.0*30
$GPRMC,155014.140,A,4058.868,N,11125.365,W,038.9,060.7,100120,000.0,W*61
$GPGGA,155015.140,4058.874,N,11125.354,W,1,12,1.0,0.0,M,0.0,M,,*7A
$GPGSA,A,3,01,02,03,04,05,06,07,08,09,10,11,12,1.0,1.0,1.0*30
$GPRMC,155015.140,A,4058.874,N,11125.354,W,038.9,060.7,100120,000.0,W*6F
$GPGGA,155016.140,4058.881,N,11125.342,W,1,12,1.0,0.0,M,0.0,M,,*74
$GPGSA,A,3,01,02,03,04,05,06,07,08,09,10,11,12,1.0,1.0,1.0*30
$GPRMC,155016.140,A,4058.881,N,11125.342,W,038.9,060.7,100120,000.0,W*61
$GPGGA,155017.140,4058.887,N,11125.331,W,1,12,1.0,0.0,M,0.0,M,,*77
$GPGSA,A,3,01,02,03,04,05,06,07,08,09,10,11,12,1.0,1.0,1.0*30
$GPRMC,155017.140,A,4058.887,N,11125.331,W,038.9,060.7,100120,000.0,W*62
$GPGGA,155018.140,4058.894,N,11125.319,W,1,12,1.0,0.0,M,0.0,M,,*70
$GPGSA,A,3,01,02,03,04,05,06,07,08,09,10,11,12,1.0,1.0,1.0*30
$GPRMC,155018.140,A,4058.894,N,11125.319,W,038.9,060.7,100120,000.0,W*65
$GPGGA,155019.140,4058.900,N,11125.308,W,1,12,1.0,0.0,M,0.0,M,,*7D
$GPGSA,A,3,01,02,03,04,05,06,07,08,09,10,11,12,1.0,1.0,1.0*30
$GPRMC,155019.140,A,4058.900,N,11125.308,W,038.9,060.7,100120,000.0,W*68
$GPGGA,155020.140,4058.907,N,11125.296,W,1,12,1.0,0.0,M,0.0,M,,*76
$GPGSA,A,3,01,02,03,04,05,06,07,08,09,10,11,12,1.0,1.0,1.0*30
$GPRMC,155020.140,A,4058.907,N,11125.296,W,038.9,060.7,100120,000.0,W*63
$GPGGA,155021.140,4058.913,N,11125.285,W,1,12,1.0,0.0,M,0.0,M,,*70
$GPGSA,A,3,01,02,03,04,05,06,07,08,09,10,11,12,1.0,1.0,1.0*30
$GPRMC,155021.140,A,4058.913,N,11125.285,W,038.9,060.7,100120,000.0,W*65
$GPGGA,155022.140,4058.919,N,11125.273,W,1,12,1.0,0.0,M,0.0,M,,*70
$GPGSA,A,3,01,02,03,04,05,06,07,08,09,10,11,12,1.0,1.0,1.0*30
$GPRMC,155022.140,A,4058.919,N,11125.273,W,038.9,060.7,100120,000.0,W*65
$GPGGA,155023.140,4058.926,N,11125.262,W,1,12,1.0,0.0,M,0.0,M,,*7D
$GPGSA,A,3,01,02,03,04,05,06,07,08,09,10,11,12,1.0,1.0,1.0*30
$GPRMC,155023.140,A,4058.926,N,11125.262,W,038.9,060.7,100120,000.0,W*68
$GPGGA,155024.140,4058.932,N,11125.250,W,1,12,1.0,0.0,M,0.0,M,,*7E
$GPGSA,A,3,01,02,03,04,05,06,07,08,09,10,11,12,1.0,1.0,1.0*30
$GPRMC,155024.140,A,4058.932,N,11125.250,W,038.9,060.7,100120,000.0,W*6B
$GPGGA,155025.140,4058.939,N,11125.239,W,1,12,1.0,0.0,M,0.0,M,,*7B
$GPGSA,A,3,01,02,03,04,05,06,07,08,09,10,11,12,1.0,1.0,1.0*30
$GPRMC,155025.140,A,4058.939,N,11125.239,W,038.9,060.7,100120,000.0,W*6E
$GPGGA,155026.140,4058.945,N,11125.227,W,1,12,1.0,0.0,M,0.0,M,,*7C
$GPGSA,A,3,01,02,03,04,05,06,07,08,09,10,11,12,1.0,1.0,1.0*30
$GPRMC,155026.140,A,4058.945,N,11125.227,W,038.9,060.7,100120,000.0,W*69
$GPGGA,155027.140,4058.952,N,11125.216,W,1,12,1.0,0.0,M,0.0,M,,*79
$GPGSA,A,3,01,02,03,04,05,06,07,08,09,10,11,12,1.0,1.0,1.0*30
$GPRMC,155027.140,A,4058.952,N,11125.216,W,038.9,060.7,100120,000.0,W*6C
$GPGGA,155028.140,4058.958,N,11125.204,W,1,12,1.0,0.0,M,0.0,M,,*7F
$GPGSA,A,3,01,02,03,04,05,06,07,08,09,10,11,12,1.0,1.0,1.0*30
$GPRMC,155028.140,A,4058.958,N,11125.204,W,038.9,060.7,100120,000.0,W*6A
$GPGGA,155029.140,4058.964,N,11125.193,W,1,12,1.0,0.0,M,0.0,M,,*7C
$GPGSA,A,3,01,02,03,04,05,06,07,08,09,10,11,12,1.0,1.0,1.0*30
$GPRMC,155029.140,A,4058.964,N,11125.193,W,038.9,060.7,100120,000.0,W*69
$GPGGA,155030.140,4058.971,N,11125.181,W,1,12,1.0,0.0,M,0.0,M,,*73
$GPGSA,A,3,01,02,03,04,05,06,07,08,09,10,11,12,1.0,1.0,1.0*30
$GPRMC,155030.140,A,4058.971,N,11125.181,W,038.9,060.7,100120,000.0,W*66
$GPGGA,155031.140,4058.977,N,11125.170,W,1,12,1.0,0.0,M,0.0,M,,*7A
$GPGSA,A,3,01,02,03,04,05,06,07,08,09,10,11,12,1.0,1.0,1.0*30
$GPRMC,155031.140,A,4058.977,N,11125.170,W,038.9,060.7,100120,000.0,W*6F
$GPGGA,155032.140,4058.984,N,11125.158,W,1,12,1.0,0.0,M,0.0,M,,*7F
$GPGSA,A,3,01,02,03,04,05,06,07,08,09,10,11,12,1.0,1.0,1.0*30
$GPRMC,155032.140,A,4058.984,N,11125.158,W,038.9,060.7,100120,000.0,W*6A
$GPGGA,155033.140,4058.990,N,11125.147,W,1,12,1.0,0.0,M,0.0,M,,*75
$GPGSA,A,3,01,02,03,04,05,06,07,08,09,10,11,12,1.0,1.0,1.0*30
$GPRMC,155033.140,A,4058.990,N,11125.147,W,038.9,060.7,100120,000.0,W*60
$GPGGA,155034.140,4058.997,N,11125.135,W,1,12,1.0,0.0,M,0.0,M,,*70
$GPGSA,A,3,01,02,03,04,05,06,07,08,09,10,11,12,1.0,1.0,1.0*30
$GPRMC,155034.140,A,4058.997,N,11125.135,W,038.9,060.7,100120,000.0,W*65
$GPGGA,155035.140,4059.003,N,11125.124,W,1,12,1.0,0.0,M,0.0,M,,*74
$GPGSA,A,3,01,02,03,04,05,06,07,08,09,10,11,12,1.0,1.0,1.0*30
$GPRMC,155035.140,A,4059.003,N,11125.124,W,038.9,060.7,100120,000.0,W*61
$GPGGA,155036.140,4059.009,N,11125.112,W,1,12,1.0,0.0,M,0.0,M,,*78
$GPGSA,A,3,01,02,03,04,05,06,07,08,09,10,11,12,1.0,1.0,1.0*30
$GPRMC,155036.140,A,4059.009,N,11125.112,W,038.9,060.7,100120,000.0,W*6D
$GPGGA,155037.140,4059.016,N,11125.101,W,1,12,1.0,0.0,M,0.0,M,,*75
$GPGSA,A,3,01,02,03,04,05,06,07,08,09,10,11,12,1.0,1.0,1.0*30
$GPRMC,155037.140,A,4059.016,N,11125.101,W,038.9,060.7,100120,000.0,W*60
$GPGGA,155038.140,4059.022,N,11125.089,W,1,12,1.0,0.0,M,0.0,M,,*7C
$GPGSA,A,3,01,02,03,04,05,06,07,08,09,10,11,12,1.0,1.0,1.0*30
$GPRMC,155038.140,A,4059.022,N,11125.089,W,038.9,060.7,100120,000.0,W*69
$GPGGA,155039.140,4059.029,N,11125.078,W,1,12,1.0,0.0,M,0.0,M,,*78
$GPGSA,A,3,01,02,03,04,05,06,07,08,09,10,11,12,1.0,1.0,1.0*30
$GPRMC,155039.140,A,4059.029,N,11125.078,W,038.9,060.7,100120,000.0,W*6D
$GPGGA,155040.140,4059.035,N,11125.066,W,1,12,1.0,0.0,M,0.0,M,,*74
$GPGSA,A,3,01,02,03,04,05,06,07,08,09,10,11,12,1.0,1.0,1.0*30
$GPRMC,155040.140,A,4059.035,N,11125.066,W,038.9,060.7,100120,000.0,W*61
$GPGGA,155041.140,4059.042,N,11125.055,W,1,12,1.0,0.0,M,0.0,M,,*75
$GPGSA,A,3,01,02,03,04,05,06,07,08,09,10,11,12,1.0,1.0,1.0*30
$GPRMC,155041.140,A,4059.042,N,11125.055,W,038.9,060.7,100120,000.0,W*60
$GPGGA,155042.140,4059.048,N,11125.043,W,1,12,1.0,0.0,M,0.0,M,,*7B
$GPGSA,A,3,01,02,03,04,05,06,07,08,09,10,11,12,1.0,1.0,1.0*30
$GPRMC,155042.140,A,4059.048,N,11125.043,W,038.9,060.7,100120,000.0,W*6E
$GPGGA,155043.140,4059.054,N,11125.032,W,1,12,1.0,0.0,M,0.0,M,,*71
$GPGSA,A,3,01,02,03,04,05,06,07,08,09,10,11,12,1.0,1.0,1.0*30
$GPRMC,155043.140,A,4059.054,N,11125.032,W,038.9,060.7,100120,000.0,W*64
$GPGGA,155044.140,4059.061,N,11125.020,W,1,12,1.0,0.0,M,0.0,M,,*73
$GPGSA,A,3,01,02,03,04,05,06,07,08,09,10,11,12,1.0,1.0,1.0*30
$GPRMC,155044.140,A,4059.061,N,11125.020,W,038.9,060.7,100120,000.0,W*66
$GPGGA,155045.140,4059.067,N,11125.009,W,1,12,1.0,0.0,M,0.0,M,,*7F
$GPGSA,A,3,01,02,03,04,05,06,07,08,09,10,11,12,1.0,1.0,1.0*30
$GPRMC,155045.140,A,4059.067,N,11125.009,W,038.9,060.7,100120,000.0,W*6A
$GPGGA,155046.140,4059.074,N,11124.997,W,1,12,1.0,0.0,M,0.0,M,,*71
$GPGSA,A,3,01,02,03,04,05,06,07,08,09,10,11,12,1.0,1.0,1.0*30
$GPRMC,155046.140,A,4059.074,N,11124.997,W,038.9,060.7,100120,000.0,W*64
$GPGGA,155047.140,4059.080,N,11124.986,W,1,12,1.0,0.0,M,0.0,M,,*7B
$GPGSA,A,3,01,02,03,04,05,06,07,08,09,10,11,12,1.0,1.0,1.0*30
$GPRMC,155047.140,A,4059.080,N,11124.986,W,038.9,060.7,100120,000.0,W*6E
$GPGGA,155048.140,4059.087,N,11124.974,W,1,12,1.0,0.0,M,0.0,M,,*7E
$GPGSA,A,3,01,02,03,04,05,06,07,08,09,10,11,12,1.0,1.0,1.0*30
$GPRMC,155048.140,A,4059.087,N,11124.974,W,038.9,060.7,100120,000.0,W*6B
$GPGGA,155049.140,4059.093,N,11124.963,W,1,12,1.0,0.0,M,0.0,M,,*7C
$GPGSA,A,3,01,02,03,04,05,06,07,08,09,10,11,12,1.0,1.0,1.0*30
$GPRMC,155049.140,A,4059.093,N,11124.963,W,038.9,060.7,100120,000.0,W*69
$GPGGA,155050.140,4059.099,N,11124.951,W,1,12,1.0,0.0,M,0.0,M,,*7F
$GPGSA,A,3,01,02,03,04,05,06,07,08,09,10,11,12,1.0,1.0,1.0*30
$GPRMC,155050.140,A,4059.099,N,11124.951,W,038.9,060.7,100120,000.0,W*6A
$GPGGA,155051.140,4059.106,N,11124.940,W,1,12,1.0,0.0,M,0.0,M,,*79
$GPGSA,A,3,01,02,03,04,05,06,07,08,09,10,11,12,1.0,1.0,1.0*30
$GPRMC,155051.140,A,4059.106,N,11124.940,W,038.9,060.7,100120,000.0,W*6C
$GPGGA,155052.140,4059.112,N,11124.928,W,1,12,1.0,0.0,M,0.0,M,,*71
$GPGSA,A,3,01,02,03,04,05,06,07,08,09,10,11,12,1.0,1.0,1.0*30
$GPRMC,155052.140,A,4059.112,N,11124.928,W,038.9,060.7,100120,000.0,W*64
$GPGGA,155053.140,4059.119,N,11124.917,W,1,12,1.0,0.0,M,0.0,M,,*77
$GPGSA,A,3,01,02,03,04,05,06,07,08,09,10,11,12,1.0,1.0,1.0*30
$GPRMC,155053.140,A,4059.119,N,11124.917,W,038.9,060.7,100120,000.0,W*62
$GPGGA,155054.140,4059.125,N,11124.905,W,1,12,1.0,0.0,M,0.0,M,,*7C
$GPGSA,A,3,01,02,03,04,05,06,07,08,09,10,11,12,1.0,1.0,1.0*30
$GPRMC,155054.140,A,4059.125,N,11124.905,W,038.9,060.7,100120,000.0,W*69
$GPGGA,155055.140,4059.131,N,11124.894,W,1,12,1.0,0.0,M,0.0,M,,*71
$GPGSA,A,3,01,02,03,04,05,06,07,08,09,10,11,12,1.0,1.0,1.0*30
$GPRMC,155055.140,A,4059.131,N,11124.894,W,038.9,060.7,100120,000.0,W*64
$GPGGA,155056.140,4059.138,N,11124.882,W,1,12,1.0,0.0,M,0.0,M,,*7C
$GPGSA,A,3,01,02,03,04,05,06,07,08,09,10,11,12,1.0,1.0,1.0*30
$GPRMC,155056.140,A,4059.138,N,11124.882,W,038.9,060.7,100120,000.0,W*69
$GPGGA,155057.140,4059.144,N,11124.871,W,1,12,1.0,0.0,M,0.0,M,,*7A
$GPGSA,A,3,01,02,03,04,05,06,07,08,09,10,11,12,1.0,1.0,1.0*30
$GPRMC,155057.140,A,4059.144,N,11124.871,W,038.9,060.7,100120,000.0,W*6F
$GPGGA,155058.140,4059.151,N,11124.859,W,1,12,1.0,0.0,M,0.0,M,,*7B
$GPGSA,A,3,01,02,03,04,05,06,07,08,09,10,11,12,1.0,1.0,1.0*30
$GPRMC,155058.140,A,4059.151,N,11124.859,W,038.9,060.7,100120,000.0,W*6E
$GPGGA,155059.140,4059.157,N,11124.848,W,1,12,1.0,0.0,M,0.0,M,,*7C
$GPGSA,A,3,01,02,03,04,05,06,07,08,09,10,11,12,1.0,1.0,1.0*30
$GPRMC,155059.140,A,4059.157,N,11124.848,W,038.9,060.7,100120,000.0,W*69
$GPGGA,155100.140,4059.164,N,11124.836,W,1,12,1.0,0.0,M,0.0,M,,*78
$GPGSA,A,3,01,02,03,04,05,06,07,08,09,10,11,12,1.0,1.0,1.0*30
$GPRMC,155100.140,A,4059.164,N,11124.836,W,038.9,060.7,100120,000.0,W*6D
$GPGGA,155101.140,4059.170,N,11124.825,W,1,12,1.0,0.0,M,0.0,M,,*7E
$GPGSA,A,3,01,02,03,04,05,06,07,08,09,10,11,12,1.0,1.0,1.0*30
$GPRMC,155101.140,A,4059.170,N,11124.825,W,038.9,060.7,100120,000.0,W*6B
$GPGGA,155102.140,4059.176,N,11124.813,W,1,12,1.0,0.0,M,0.0,M,,*7E
$GPGSA,A,3,01,02,03,04,05,06,07,08,09,10,11,12,1.0,1.0,1.0*30
$GPRMC,155102.140,A,4059.176,N,11124.813,W,038.9,060.7,100120,000.0,W*6B
$GPGGA,155103.140,4059.183,N,11124.802,W,1,12,1.0,0.0,M,0.0,M,,*75
$GPGSA,A,3,01,02,03,04,05,06,07,08,09,10,11,12,1.0,1.0,1.0*30
$GPRMC,155103.140,A,4059.183,N,11124.802,W,038.9,060.7,100120,000.0,W*60
$GPGGA,155104.140,4059.189,N,11124.790,W,1,12,1.0,0.0,M,0.0,M,,*7C
$GPGSA,A,3,01,02,03,04,05,06,07,08,09,10,11,12,1.0,1.0,1.0*30
$GPRMC,155104.140,A,4059.189,N,11124.790,W,038.9,060.7,100120,000.0,W*69
$GPGGA,155105.140,4059.196,N,11124.779,W,1,12,1.0,0.0,M,0.0,M,,*74
$GPGSA,A,3,01,02,03,04,05,06,07,08,09,10,11,12,1.0,1.0,1.0*30
$GPRMC,155105.140,A,4059.196,N,11124.779,W,038.9,060.7,100120,000.0,W*61
$GPGGA,155106.140,4059.202,N,11124.767,W,1,12,1.0,0.0,M,0.0,M,,*76
$GPGSA,A,3,01,02,03,04,05,06,07,08,09,10,11,12,1.0,1.0,1.0*30
$GPRMC,155106.140,A,4059.202,N,11124.767,W,038.9,060.7,100120,000.0,W*63
$GPGGA,155107.140,4059.209,N,11124.756,W,1,12,1.0,0.0,M,0.0,M,,*7E
$GPGSA,A,3,01,02,03,04,05,06,07,08,09,10,11,12,1.0,1.0,1.0*30
$GPRMC,155107.140,A,4059.209,N,11124.756,W,038.9,060.7,100120,000.0,W*6B
$GPGGA,155108.140,4059.215,N,11124.744,W,1,12,1.0,0.0,M,0.0,M,,*7F
$GPGSA,A,3,01,02,03,04,05,06,07,08,09,10,11,12,1.0,1.0,1.0*30
$GPRMC,155108.140,A,4059.215,N,11124.744,W,038.9,060.7,100120,000.0,W*6A
$GPGGA,155109.140,4059.221,N,11124.733,W,1,12,1.0,0.0,M,0.0,M,,*79
$GPGSA,A,3,01,02,03,04,05,06,07,08,09,10,11,12,1.0,1.0,1.0*30
$GPRMC,155109.140,A,4059.221,N,11124.733,W,038.9,060.7,100120,000.0,W*6C
$GPGGA,155110.140,4059.228,N,11124.721,W,1,12,1.0,0.0,M,0.0,M,,*7B
$GPGSA,A,3,01,02,03,04,05,06,07,08,09,10,11,12,1.0,1.0,1.0*30
$GPRMC,155110.140,A,4059.228,N,11124.721,W,038.9,060.7,100120,000.0,W*6E
$GPGGA,155111.140,4059.234,N,11124.710,W,1,12,1.0,0.0,M,0.0,M,,*75
$GPGSA,A,3,01,02,03,04,05,06,07,08,09,10,11,12,1.0,1.0,1.0*30
$GPRMC,155111.140,A,4059.234,N,11124.710,W,038.9,060.7,100120,000.0,W*60
$GPGGA,155112.140,4059.241,N,11124.698,W,1,12,1.0,0.0,M,0.0,M,,*75
$GPGSA,A,3,01,02,03,04,05,06,07,08,09,10,11,12,1.0,1.0,1.0*30
$GPRMC,155112.140,A,4059.241,N,11124.698,W,038.9,060.7,100120,000.0,W*60
$GPGGA,155113.140,4059.247,N,11124.687,W,1,12,1.0,0.0,M,0.0,M,,*7C
$GPGSA,A,3,01,02,03,04,05,06,07,08,09,10,11,12,1.0,1.0,1.0*30
$GPRMC,155113.140,A,4059.247,N,11124.687,W,038.9,060.7,100120,000.0,W*69
$GPGGA,155114.140,4059.254,N,11124.675,W,1,12,1.0,0.0,M,0.0,M,,*74
$GPGSA,A,3,01,02,03,04,05,06,07,08,09,10,11,12,1.0,1.0,1.0*30
$GPRMC,155114.140,A,4059.254,N,11124.675,W,038.9,060.7,100120,000.0,W*61
$GPGGA,155115.140,4059.260,N,11124.664,W,1,12,1.0,0.0,M,0.0,M,,*72
$GPGSA,A,3,01,02,03,04,05,06,07,08,09,10,11,12,1.0,1.0,1.0*30
$GPRMC,155115.140,A,4059.260,N,11124.664,W,038.9,060.7,100120,000.0,W*67
$GPGGA,155116.140,4059.266,N,11124.652,W,1,12,1.0,0.0,M,0.0,M,,*72
$GPGSA,A,3,01,02,03,04,05,06,07,08,09,10,11,12,1.0,1.0,1.0*30
$GPRMC,155116.140,A,4059.266,N,11124.652,W,038.9,060.7,100120,000.0,W*67
$GPGGA,155117.140,4059.273,N,11124.641,W,1,12,1.0,0.0,M,0.0,M,,*75
$GPGSA,A,3,01,02,03,04,05,06,07,08,09,10,11,12,1.0,1.0,1.0*30
$GPRMC,155117.140,A,4059.273,N,11124.641,W,038.9,060.7,100120,000.0,W*60
$GPGGA,155118.140,4059.279,N,11124.629,W,1,12,1.0,0.0,M,0.0,M,,*7E
$GPGSA,A,3,01,02,03,04,05,06,07,08,09,10,11,12,1.0,1.0,1.0*30
$GPRMC,155118.140,A,4059.279,N,11124.629,W,038.9,060.7,100120,000.0,W*6B
$GPGGA,155119.140,4059.286,N,11124.618,W,1,12,1.0,0.0,M,0.0,M,,*7D
$GPGSA,A,3,01,02,03,04,05,06,07,08,09,10,11,12,1.0,1.0,1.0*30
$GPRMC,155119.140,A,4059.286,N,11124.618,W,038.9,060.7,100120,000.0,W*68
$GPGGA,155120.140,4059.292,N,11124.606,W,1,12,1.0,0.0,M,0.0,M,,*7D
$GPGSA,A,3,01,02,03,04,05,06,07,08,09,10,11,12,1.0,1.0,1.0*30
$GPRMC,155120.140,A,4059.292,N,11124.606,W,038.9,060.7,100120,000.0,W*68
$GPGGA,155121.140,4059.299,N,11124.595,W,1,12,1.0,0.0,M,0.0,M,,*7E
$GPGSA,A,3,01,02,03,04,05,06,07,08,09,10,11,12,1.0,1.0,1.0*30
$GPRMC,155121.140,A,4059.299,N,11124.595,W,038.9,060.7,100120,000.0,W*6B
$GPGGA,155122.140,4059.305,N,11124.583,W,1,12,1.0,0.0,M,0.0,M,,*7E
$GPGSA,A,3,01,02,03,04,05,06,07,08,09,10,11,12,1.0,1.0,1.0*30
$GPRMC,155122.140,A,4059.305,N,11124.583,W,038.9,060.7,100120,000.0,W*6B
$GPGGA,155123.140,4059.311,N,11124.572,W,1,12,1.0,0.0,M,0.0,M,,*74
$GPGSA,A,3,01,02,03,04,05,06,07,08,09,10,11,12,1.0,1.0,1.0*30
$GPRMC,155123.140,A,4059.311,N,11124.572,W,038.9,060.7,100120,000.0,W*61
$GPGGA,155124.140,4059.318,N,11124.560,W,1,12,1.0,0.0,M,0.0,M,,*79
$GPGSA,A,3,01,02,03,04,05,06,07,08,09,10,11,12,1.0,1.0,1.0*30
$GPRMC,155124.140,A,4059.318,N,11124.560,W,038.9,060.7,100120,000.0,W*6C
$GPGGA,155125.140,4059.324,N,11124.549,W,1,12,1.0,0.0,M,0.0,M,,*7C
$GPGSA,A,3,01,02,03,04,05,06,07,08,09,10,11,12,1.0,1.0,1.0*30
$GPRMC,155125.140,A,4059.324,N,11124.549,W,038.9,060.7,100120,000.0,W*69
$GPGGA,155126.140,4059.331,N,11124.537,W,1,12,1.0,0.0,M,0.0,M,,*72
$GPGSA,A,3,01,02,03,04,05,06,07,08,09,10,11,12,1.0,1.0,1.0*30
$GPRMC,155126.140,A,4059.331,N,11124.537,W,038.9,060.7,100120,000.0,W*67
$GPGGA,155127.140,4059.337,N,11124.526,W,1,12,1.0,0.0,M,0.0,M,,*75
$GPGSA,A,3,01,02,03,04,05,06,07,08,09,10,11,12,1.0,1.0,1.0*30
$GPRMC,155127.140,A,4059.337,N,11124.526,W,038.9,060.7,100120,000.0,W*60
$GPGGA,155128.140,4059.344,N,11124.514,W,1,12,1.0,0.0,M,0.0,M,,*7F
$GPGSA,A,3,01,02,03,04,05,06,07,08,09,10,11,12,1.0,1.0,1.0*30
$GPRMC,155128.140,A,4059.344,N,11124.514,W,038.9,060.7,100120,000.0,W*6A
$GPGGA,155129.140,4059.350,N,11124.503,W,1,12,1.0,0.0,M,0.0,M,,*7D
$GPGSA,A,3,01,02,03,04,05,06,07,08,09,10,11,12,1.0,1.0,1.0*30
$GPRMC,155129.140,A,4059.350,N,11124.503,W,038.9,060.7,100120,000.0,W*68
$GPGGA,155130.140,4059.356,N,11124.491,W,1,12,1.0,0.0,M,0.0,M,,*79
$GPGSA,A,3,01,02,03,04,05,06,07,08,09,10,11,12,1.0,1.0,1.0*30
$GPRMC,155130.140,A,4059.356,N,11124.491,W,038.9,060.7,100120,000.0,W*6C
$GPGGA,155131.140,4059.363,N,11124.480,W,1,12,1.0,0.0,M,0.0,M,,*7E
$GPGSA,A,3,01,02,03,04,05,06,07,08,09,10,11,12,1.0,1.0,1.0*30
$GPRMC,155131.140,A,4059.363,N,11124.480,W,038.9,060.7,100120,000.0,W*6B
$GPGGA,155132.140,4059.369,N,11124.468,W,1,12,1.0,0.0,M,0.0,M,,*71
$GPGSA,A,3,01,02,03,04,05,06,07,08,09,10,11,12,1.0,1.0,1.0*30
$GPRMC,155132.140,A,4059.369,N,11124.468,W,038.9,060.7,100120,000.0,W*64
$GPGGA,155133.140,4059.376,N,11124.457,W,1,12,1.0,0.0,M,0.0,M,,*72
$GPGSA,A,3,01,02,03,04,05,06,07,08,09,10,11,12,1.0,1.0,1.0*30
$GPRMC,155133.140,A,4059.376,N,11124.457,W,038.9,060.7,100120,000.0,W*67
$GPGGA,155134.140,4059.382,N,11124.445,W,1,12,1.0,0.0,M,0.0,M,,*7D
$GPGSA,A,3,01,02,03,04,05,06,07,08,09,10,11,12,1.0,1.0,1.0*30
$GPRMC,155134.140,A,4059.382,N,11124.445,W,038.9,060.7,100120,000.0,W*68
$GPGGA,155135.140,4059.388,N,11124.434,W,1,12,1.0,0.0,M,0.0,M,,*70
$GPGSA,A,3,01,02,03,04,05,06,07,08,09,10,11,12,1.0,1.0,1.0*30
$GPRMC,155135.140,A,4059.388,N,11124.434,W,038.9,060.7,100120,000.0,W*65
$GPGGA,155136.140,4059.395,N,11124.422,W,1,12,1.0,0.0,M,0.0,M,,*78
$GPGSA,A,3,01,02,03,04,05,06,07,08,09,10,11,12,1.0,1.0,1.0*30
$GPRMC,155136.140,A,4059.395,N,11124.422,W,038.9,060.7,100120,000.0,W*6D
$GPGGA,155137.140,4059.401,N,11124.411,W,1,12,1.0,0.0,M,0.0,M,,*73
$GPGSA,A,3,01,02,03,04,05,06,07,08,09,10,11,12,1.0,1.0,1.0*30
$GPRMC,155137.140,A,4059.401,N,11124.411,W,038.9,060.7,100120,000.0,W*66
$GPGGA,155138.140,4059.408,N,11124.399,W,1,12,1.0,0.0,M,0.0,M,,*72
$GPGSA,A,3,01,02,03,04,05,06,07,08,09,10,11,12,1.0,1.0,1.0*30
$GPRMC,155138.140,A,4059.408,N,11124.399,W,038.9,060.7,100120,000.0,W*67
$GPGGA,155139.140,4059.414,N,11124.388,W,1,12,1.0,0.0,M,0.0,M,,*7E
$GPGSA,A,3,01,02,03,04,05,06,07,08,09,10,11,12,1.0,1.0,1.0*30
$GPRMC,155139.140,A,4059.414,N,11124.388,W,038.9,060.7,100120,000.0,W*6B
$GPGGA,155140.140,4059.421,N,11124.376,W,1,12,1.0,0.0,M,0.0,M,,*77
$GPGSA,A,3,01,02,03,04,05,06,07,08,09,10,11,12,1.0,1.0,1.0*30
$GPRMC,155140.140,A,4059.421,N,11124.376,W,038.9,060.7,100120,000.0,W*62
$GPGGA,155141.140,4059.427,N,11124.365,W,1,12,1.0,0.0,M,0.0,M,,*72
$GPGSA,A,3,01,02,03,04,05,06,07,08,09,10,11,12,1.0,1.0,1.0*30
$GPRMC,155141.140,A,4059.427,N,11124.365,W,038.9,060.7,100120,000.0,W*67
$GPGGA,155142.140,4059.433,N,11124.353,W,1,12,1.0,0.0,M,0.0,M,,*71
$GPGSA,A,3,01,02,03,04,05,06,07,08,09,10,11,12,1.0,1.0,1.0*30
$GPRMC,155142.140,A,4059.433,N,11124.353,W,038.9,060.7,100120,000.0,W*64
$GPGGA,155143.140,4059.440,N,11124.342,W,1,12,1.0,0.0,M,0.0,M,,*74
$GPGSA,A,3,01,02,03,04,05,06,07,08,09,10,11,12,1.0,1.0,1.0*30
$GPRMC,155143.140,A,4059.440,N,11124.342,W,038.9,060.7,100120,000.0,W*61
$GPGGA,155144.140,4059.446,N,11124.330,W,1,12,1.0,0.0,M,0.0,M,,*70
$GPGSA,A,3,01,02,03,04,05,06,07,08,09,10,11,12,1.0,1.0,1.0*30
$GPRMC,155144.140,A,4059.446,N,11124.330,W,038.9,060.7,100120,000.0,W*65
$GPGGA,155145.140,4059.453,N,11124.319,W,1,12,1.0,0.0,M,0.0,M,,*7E
$GPGSA,A,3,01,02,03,04,05,06,07,08,09,10,11,12,1.0,1.0,1.0*30
$GPRMC,155145.140,A,4059.453,N,11124.319,W,038.9,060.7,100120,000.0,W*6B
$GPGGA,155146.140,4059.459,N,11124.307,W,1,12,1.0,0.0,M,0.0,M,,*78
$GPGSA,A,3,01,02,03,04,05,06,07,08,09,10,11,12,1.0,1.0,1.0*30
$GPRMC,155146.140,A,4059.459,N,11124.307,W,038.9,060.7,100120,000.0,W*6D
$GPGGA,155147.140,4059.466,N,11124.296,W,1,12,1.0,0.0,M,0.0,M,,*7C
$GPGSA,A,3,01,02,03,04,05,06,07,08,09,10,11,12,1.0,1.0,1.0*30
$GPRMC,155147.140,A,4059.466,N,11124.296,W,038.9,060.7,100120,000.0,W*69
$GPGGA,155148.140,4059.472,N,11124.284,W,1,12,1.0,0.0,M,0.0,M,,*75
$GPGSA,A,3,01,02,03,04,05,06,07,08,09,10,11,12,1.0,1.0,1.0*30
$GPRMC,155148.140,A,4059.472,N,11124.284,W,038.9,060.7,100120,000.0,W*60
$GPGGA,155149.140,4059.478,N,11124.273,W,1,12,1.0,0.0,M,0.0,M,,*76
$GPGSA,A,3,01,02,03,04,05,06,07,08,09,10,11,12,1.0,1.0,1.0*30
$GPRMC,155149.140,A,4059.478,N,11124.273,W,038.9,060.7,100120,000.0,W*63
$GPGGA,155150.140,4059.485,N,11124.261,W,1,12,1.0,0.0,M,0.0,M,,*7F
$GPGSA,A,3,01,02,03,04,05,06,07,08,09,10,11,12,1.0,1.0,1.0*30
$GPRMC,155150.140,A,4059.485,N,11124.261,W,038.9,060.7,100120,000.0,W*6A
$GPGGA,155151.140,4059.491,N,11124.250,W,1,12,1.0,0.0,M,0.0,M,,*79
$GPGSA,A,3,01,02,03,04,05,06,07,08,09,10,11,12,1.0,1.0,1.0*30
$GPRMC,155151.140,A,4059.491,N,11124.250,W,038.9,060.7,100120,000.0,W*6C
$GPGGA,155152.140,4059.498,N,11124.238,W,1,12,1.0,0.0,M,0.0,M,,*7D
$GPGSA,A,3,01,02,03,04,05,06,07,08,09,10,11,12,1.0,1.0,1.0*30
$GPRMC,155152.140,A,4059.498,N,11124.238,W,038.9,060.7,100120,000.0,W*68
$GPGGA,155153.140,4059.504,N,11124.227,W,1,12,1.0,0.0,M,0.0,M,,*76
$GPGSA,A,3,01,02,03,04,05,06,07,08,09,10,11,12,1.0,1.0,1.0*30
$GPRMC,155153.140,A,4059.504,N,11124.227,W,038.9,060.7,100120,000.0,W*63
$GPGGA,155154.140,4059.511,N,11124.215,W,1,12,1.0,0.0,M,0.0,M,,*74
$GPGSA,A,3,01,02,03,04,05,06,07,08,09,10,11,12,1.0,1.0,1.0*30
$GPRMC,155154.140,A,4059.511,N,11124.215,W,038.9,060.7,100120,000.0,W*61
$GPGGA,155155.140,4059.517,N,11124.204,W,1,12,1.0,0.0,M,0.0,M,,*73
$GPGSA,A,3,01,02,03,04,05,06,07,08,09,10,11,12,1.0,1.0,1.0*30
$GPRMC,155155.140,A,4059.517,N,11124.204,W,038.9,060.7,100120,000.0,W*66
$GPGGA,155156.140,4059.523,N,11124.192,W,1,12,1.0,0.0,M,0.0,M,,*7B
$GPGSA,A,3,01,02,03,04,05,06,07,08,09,10,11,12,1.0,1.0,1.0*30
$GPRMC,155156.140,A,4059.523,N,11124.192,W,038.9,060.7,100120,000.0,W*6E
$GPGGA,155157.140,4059.530,N,11124.181,W,1,12,1.0,0.0,M,0.0,M,,*7A
$GPGSA,A,3,01,02,03,04,05,06,07,08,09,10,11,12,1.0,1.0,1.0*30
$GPRMC,155157.140,A,4059.530,N,11124.181,W,038.9,060.7,100120,000.0,W*6F
$GPGGA,155158.140,4059.536,N,11124.169,W,1,12,1.0,0.0,M,0.0,M,,*75
$GPGSA,A,3,01,02,03,04,05,06,07,08,09,10,11,12,1.0,1.0,1.0*30
$GPRMC,155158.140,A,4059.536,N,11124.169,W,038.9,060.7,100120,000.0,W*60
$GPGGA,155159.140,4059.543,N,11124.158,W,1,12,1.0,0.0,M,0.0,M,,*74
$GPGSA,A,3,01,02,03,04,05,06,07,08,09,10,11,12,1.0,1.0,1.0*30
$GPRMC,155159.140,A,4059.543,N,11124.158,W,038.9,060.7,100120,000.0,W*61
$GPGGA,155200.140,4059.549,N,11124.146,W,1,12,1.0,0.0,M,0.0,M,,*7E
$GPGSA,A,3,01,02,03,04,05,06,07,08,09,10,11,12,1.0,1.0,1.0*30
$GPRMC,155200.140,A,4059.549,N,11124.146,W,038.9,060.7,100120,000.0,W*6B
$GPGGA,155201.140,4059.556,N,11124.135,W,1,12,1.0,0.0,M,0.0,M,,*75
$GPGSA,A,3,01,02,03,04,05,06,07,08,09,10,11,12,1.0,1.0,1.0*30
$GPRMC,155201.140,A,4059.556,N,11124.135,W,038.9,060.7,100120,000.0,W*60
$GPGGA,155202.140,4059.562,N,11124.123,W,1,12,1.0,0.0,M,0.0,M,,*76
$GPGSA,A,3,01,02,03,04,05,06,07,08,09,10,11,12,1.0,1.0,1.0*30
$GPRMC,155202.140,A,4059.562,N,11124.123,W,038.9,060.7,100120,000.0,W*63
$GPGGA,155203.140,4059.568,N,11124.112,W,1,12,1.0,0.0,M,0.0,M,,*7F
$GPGSA,A,3,01,02,03,04,05,06,07,08,09,10,11,12,1.0,1.0,1.0*30
$GPRMC,155203.140,A,4059.568,N,11124.112,W,038.9,060.7,100120,000.0,W*6A
$GPGGA,155204.140,4059.575,N,11124.100,W,1,12,1.0,0.0,M,0.0,M,,*77
$GPGSA,A,3,01,02,03,04,05,06,07,08,09,10,11,12,1.0,1.0,1.0*30
$GPRMC,155204.140,A,4059.575,N,11124.100,W,038.9,060.7,100120,000.0,W*62
$GPGGA,155205.140,4059.581,N,11124.089,W,1,12,1.0,0.0,M,0.0,M,,*7D
$GPGSA,A,3,01,02,03,04,05,06,07,08,09,10,11,12,1.0,1.0,1.0*30
$GPRMC,155205.140,A,4059.581,N,11124.089,W,038.9,060.7,100120,000.0,W*68
$GPGGA,155206.140,4059.588,N,11124.077,W,1,12,1.0,0.0,M,0.0,M,,*76
$GPGSA,A,3,01,02,03,04,05,06,07,08,09,10,11,12,1.0,1.0,1.0*30
$GPRMC,155206.140,A,4059.588,N,11124.077,W,038.9,060.7,100120,000.0,W*63
$GPGGA,155207.140,4059.594,N,11124.066,W,1,12,1.0,0.0,M,0.0,M,,*7A
$GPGSA,A,3,01,02,03,04,05,06,07,08,09,10,11,12,1.0,1.0,1.0*30
$GPRMC,155207.140,A,4059.594,N,11124.066,W,038.9,060.7,100120,000.0,W*6F
$GPGGA,155208.140,4059.601,N,11124.054,W,1,12,1.0,0.0,M,0.0,M,,*7B
$GPGSA,A,3,01,02,03,04,05,06,07,08,09,10,11,12,1.0,1.0,1.0*30
$GPRMC,155208.140,A,4059.601,N,11124.054,W,038.9,060.7,100120,000.0,W*6E
$GPGGA,155209.140,4059.607,N,11124.043,W,1,12,1.0,0.0,M,0.0,M,,*7A
$GPGSA,A,3,01,02,03,04,05,06,07,08,09,10,11,12,1.0,1.0,1.0*30
$GPRMC,155209.140,A,4059.607,N,11124.043,W,038.9,060.7,100120,000.0,W*6F
$GPGGA,155210.140,4059.613,N,11124.031,W,1,12,1.0,0.0,M,0.0,M,,*72
$GPGSA,A,3,01,02,03,04,05,06,07,08,09,10,11,12,1.0,1.0,1.0*30
$GPRMC,155210.140,A,4059.613,N,11124.031,W,038.9,060.7,100120,000.0,W*67
$GPGGA,155211.140,4059.620,N,11124.020,W,1,12,1.0,0.0,M,0.0,M,,*73
$GPGSA,A,3,01,02,03,04,05,06,07,08,09,10,11,12,1.0,1.0,1.0*30
$GPRMC,155211.140,A,4059.620,N,11124.020,W,038.9,060.7,100120,000.0,W*66
$GPGGA,155212.140,4059.626,N,11124.008,W,1,12,1.0,0.0,M,0.0,M,,*7C
$GPGSA,A,3,01,02,03,04,05,06,07,08,09,10,11,12,1.0,1.0,1.0*30
$GPRMC,155212.140,A,4059.626,N,11124.008,W,038.9,060.7,100120,000.0,W*69
$GPGGA,155213.140,4059.633,N,11123.997,W,1,12,1.0,0.0,M,0.0,M,,*71
$GPGSA,A,3,01,02,03,04,05,06,07,08,09,10,11,12,1.0,1.0,1.0*30
$GPRMC,155213.140,A,4059.633,N,11123.997,W,038.9,060.7,100120,000.0,W*64
$GPGGA,155214.140,4059.639,N,11123.985,W,1,12,1.0,0.0,M,0.0,M,,*7F
$GPGSA,A,3,01,02,03,04,05,06,07,08,09,10,11,12,1.0,1.0,1.0*30
$GPRMC,155214.140,A,4059.639,N,11123.985,W,038.9,060.7,100120,000.0,W*6A
$GPGGA,155215.140,4059.645,N,11123.974,W,1,12,1.0,0.0,M,0.0,M,,*7B
$GPGSA,A,3,01,02,03,04,05,06,07,08,09,10,11,12,1.0,1.0,1.0*30
$GPRMC,155215.140,A,4059.645,N,11123.974,W,038.9,060.7,100120,000.0,W*6E
$GPGGA,155216.140,4059.652,N,11123.962,W,1,12,1.0,0.0,M,0.0,M,,*79
$GPGSA,A,3,01,02,03,04,05,06,07,08,09,10,11,12,1.0,1.0,1.0*30
$GPRMC,155216.140,A,4059.652,N,11123.962,W,038.9,060.7,100120,000.0,W*6C
$GPGGA,155217.140,4059.658,N,11123.951,W,1,12,1.0,0.0,M,0.0,M,,*72
$GPGSA,A,3,01,02,03,04,05,06,07,08,09,10,11,12,1.0,1.0,1.0*30
$GPRMC,155217.140,A,4059.658,N,11123.951,W,038.9,060.7,100120,000.0,W*67
$GPGGA,155218.140,4059.665,N,11123.939,W,1,12,1.0,0.0,M,0.0,M,,*7D
$GPGSA,A,3,01,02,03,04,05,06,07,08,09,10,11,12,1.0,1.0,1.0*30
$GPRMC,155218.140,A,4059.665,N,11123.939,W,038.9,060.7,100120,000.0,W*68
$GPGGA,155219.140,4059.671,N,11123.928,W,1,12,1.0,0.0,M,0.0,M,,*79
$GPGSA,A,3,01,02,03,04,05,06,07,08,09,10,11,12,1.0,1.0,1.0*30
$GPRMC,155219.140,A,4059.671,N,11123.928,W,038.9,060.7,100120,000.0,W*6C
$GPGGA,155220.140,4059.678,N,11123.916,W,1,12,1.0,0.0,M,0.0,M,,*77
$GPGSA,A,3,01,02,03,04,05,06,07,08,09,10,11,12,1.0,1.0,1.0*30
$GPRMC,155220.140,A,4059.678,N,11123.916,W,038.9,060.7,100120,000.0,W*62
$GPGGA,155221.140,4059.684,N,11123.905,W,1,12,1.0,0.0,M,0.0,M,,*77
$GPGSA,A,3,01,02,03,04,05,06,07,08,09,10,11,12,1.0,1.0,1.0*30
$GPRMC,155221.140,A,4059.684,N,11123.905,W,038.9,060.7,100120,000.0,W*62
$GPGGA,155222.140,4059.690,N,11123.893,W,1,12,1.0,0.0,M,0.0,M,,*7F
$GPGSA,A,3,01,02,03,04,05,06,07,08,09,10,11,12,1.0,1.0,1.0*30
$GPRMC,155222.140,A,4059.690,N,11123.893,W,038.9,060.7,100120,000.0,W*6A
$GPGGA,155223.140,4059.697,N,11123.882,W,1,12,1.0,0.0,M,0.0,M,,*79
$GPGSA,A,3,01,02,03,04,05,06,07,08,09,10,11,12,1.0,1.0,1.0*30
$GPRMC,155223.140,A,4059.697,N,11123.882,W,038.9,060.7,100120,000.0,W*6C
$GPGGA,155224.140,4059.703,N,11123.870,W,1,12,1.0,0.0,M,0.0,M,,*7F
$GPGSA,A,3,01,02,03,04,05,06,07,08,09,10,11,12,1.0,1.0,1.0*30
$GPRMC,155224.140,A,4059.703,N,11123.870,W,038.9,060.7,100120,000.0,W*6A
$GPGGA,155225.140,4059.710,N,11123.859,W,1,12,1.0,0.0,M,0.0,M,,*77
$GPGSA,A,3,01,02,03,04,05,06,07,08,09,10,11,12,1.0,1.0,1.0*30
$GPRMC,155225.140,A,4059.710,N,11123.859,W,038.9,060.7,100120,000.0,W*62
$GPGGA,155226.140,4059.716,N,11123.847,W,1,12,1.0,0.0,M,0.0,M,,*7D
$GPGSA,A,3,01,02,03,04,05,06,07,08,09,10,11,12,1.0,1.0,1.0*30
$GPRMC,155226.140,A,4059.716,N,11123.847,W,038.9,060.7,100120,000.0,W*68
$GPGGA,155227.140,4059.723,N,11123.836,W,1,12,1.0,0.0,M,0.0,M,,*7C
$GPGSA,A,3,01,02,03,04,05,06,07,08,09,10,11,12,1.0,1.0,1.0*30
$GPRMC,155227.140,A,4059.723,N,11123.836,W,038.9,060.7,100120,000.0,W*69
$GPGGA,155228.140,4059.729,N,11123.824,W,1,12,1.0,0.0,M,0.0,M,,*7A
$GPGSA,A,3,01,02,03,04,05,06,07,08,09,10,11,12,1.0,1.0,1.0*30
$GPRMC,155228.140,A,4059.729,N,11123.824,W,038.9,060.7,100120,000.0,W*6F
$GPGGA,155229.140,4059.735,N,11123.813,W,1,12,1.0,0.0,M,0.0,M,,*72
$GPGSA,A,3,01,02,03,04,05,06,07,08,09,10,11,12,1.0,1.0,1.0*30
$GPRMC,155229.140,A,4059.735,N,11123.813,W,038.9,060.7,100120,000.0,W*67
$GPGGA,155230.140,4059.742,N,11123.801,W,1,12,1.0,0.0,M,0.0,M,,*79
$GPGSA,A,3,01,02,03,04,05,06,07,08,09,10,11,12,1.0,1.0,1.0*30
$GPRMC,155230.140,A,4059.742,N,11123.801,W,038.9,060.7,100120,000.0,W*6C
$GPGGA,155231.140,4059.748,N,11123.790,W,1,12,1.0,0.0,M,0.0,M,,*75
$GPGSA,A,3,01,02,03,04,05,06,07,08,09,10,11,12,1.0,1.0,1.0*30
$GPRMC,155231.140,A,4059.748,N,11123.790,W,038.9,060.7,100120,000.0,W*60
$GPGGA,155232.140,4059.755,N,11123.778,W,1,12,1.0,0.0,M,0.0,M,,*7C
$GPGSA,A,3,01,02,03,04,05,06,07,08,09,10,11,12,1.0,1.0,1.0*30
$GPRMC,155232.140,A,4059.755,N,11123.778,W,038.9,060.7,100120,000.0,W*69
$GPGGA,155233.140,4059.761,N,11123.767,W,1,12,1.0,0.0,M,0.0,M,,*74
$GPGSA,A,3,01,02,03,04,05,06,07,08,09,10,11,12,1.0,1.0,1.0*30
$GPRMC,155233.140,A,4059.761,N,11123.767,W,038.9,060.7,100120,000.0,W*61
$GPGGA,155234.140,4059.768,N,11123.755,W,1,12,1.0,0.0,M,0.0,M,,*7B
$GPGSA,A,3,01,02,03,04,05,06,07,08,09,10,11,12,1.0,1.0,1.0*30
$GPRMC,155234.140,A,4059.768,N,11123.755,W,038.9,060.7,100120,000.0,W*6E
$GPGGA,155235.140,4059.774,N,11123.744,W,1,12,1.0,0.0,M,0.0,M,,*77
$GPGSA,A,3,01,02,03,04,05,06,07,08,09,10,11,12,1.0,1.0,1.0*30
$GPRMC,155235.140,A,4059.774,N,11123.744,W,038.9,060.7,100120,000.0,W*62
$GPGGA,155236.140,4059.780,N,11123.732,W,1,12,1.0,0.0,M,0.0,M,,*7E
$GPGSA,A,3,01,02,03,04,05,06,07,08,09,10,11,12,1.0,1.0,1.0*30
$GPRMC,155236.140,A,4059.780,N,11123.732,W,038.9,060.7,100120,000.0,W*6B
$GPGGA,155237.140,4059.787,N,11123.721,W,1,12,1.0,0.0,M,0.0,M,,*7A
$GPGSA,A,3,01,02,03,04,05,06,07,08,09,10,11,12,1.0,1.0,1.0*30
$GPRMC,155237.140,A,4059.787,N,11123.721,W,038.9,060.7,100120,000.0,W*6F
$GPGGA,155238.140,4059.793,N,11123.709,W,1,12,1.0,0.0,M,0.0,M,,*7A
$GPGSA,A,3,01,02,03,04,05,06,07,08,09,10,11,12,1.0,1.0,1.0*30
$GPRMC,155238.140,A,4059.793,N,11123.709,W,038.9,060.7,100120,000.0,W*6F
$GPGGA,155239.140,4059.800,N,11123.698,W,1,12,1.0,0.0,M,0.0,M,,*77
$GPGSA,A,3,01,02,03,04,05,06,07,08,09,10,11,12,1.0,1.0,1.0*30
$GPRMC,155239.140,A,4059.800,N,11123.698,W,038.9,060.7,100120,000.0,W*62
$GPGGA,155240.140,4059.806,N,11123.686,W,1,12,1.0,0.0,M,0.0,M,,*70
$GPGSA,A,3,01,02,03,04,05,06,07,08,09,10,11,12,1.0,1.0,1.0*30
$GPRMC,155240.140,A,4059.806,N,11123.686,W,038.9,060.7,100120,000.0,W*65
$GPGGA,155241.140,4059.813,N,11123.675,W,1,12,1.0,0.0,M,0.0,M,,*79
$GPGSA,A,3,01,02,03,04,05,06,07,08,09,10,11,12,1.0,1.0,1.0*30
$GPRMC,155241.140,A,4059.813,N,11123.675,W,038.9,060.7,100120,000.0,W*6C
$GPGGA,155242.140,4059.819,N,11123.663,W,1,12,1.0,0.0,M,0.0,M,,*77
$GPGSA,A,3,01,02,03,04,05,06,07,08,09,10,11,12,1.0,1.0,1.0*30
$GPRMC,155242.140,A,4059.819,N,11123.663,W,038.9,060.7,100120,000.0,W*62
$GPGGA,155243.140,4059.825,N,11123.652,W,1,12,1.0,0.0,M,0.0,M,,*7B
$GPGSA,A,3,01,02,03,04,05,06,07,08,09,10,11,12,1.0,1.0,1.0*30
$GPRMC,155243.140,A,4059.825,N,11123.652,W,038.9,060.7,100120,000.0,W*6E
$GPGGA,155244.140,4059.832,N,11123.640,W,1,12,1.0,0.0,M,0.0,M,,*79
$GPGSA,A,3,01,02,03,04,05,06,07,08,09,10,11,12,1.0,1.0,1.0*30
$GPRMC,155244.140,A,4059.832,N,11123.640,W,038.9,060.7,100120,000.0,W*6C
$GPGGA,155245.140,4059.838,N,11123.629,W,1,12,1.0,0.0,M,0.0,M,,*7D
$GPGSA,A,3,01,02,03,04,05,06,07,08,09,10,11,12,1.0,1.0,1.0*30
$GPRMC,155245.140,A,4059.838,N,11123.629,W,038.9,060.7,100120,000.0,W*68
$GPGGA,155246.140,4059.845,N,11123.617,W,1,12,1.0,0.0,M,0.0,M,,*79
$GPGSA,A,3,01,02,03,04,05,06,07,08,09,10,11,12,1.0,1.0,1.0*30
$GPRMC,155246.140,A,4059.845,N,11123.617,W,038.9,060.7,100120,000.0,W*6C
$GPGGA,155247.140,4059.851,N,11123.606,W,1,12,1.0,0.0,M,0.0,M,,*7D
$GPGSA,A,3,01,02,03,04,05,06,07,08,09,10,11,12,1.0,1.0,1.0*30
$GPRMC,155247.140,A,4059.851,N,11123.606,W,038.9,060.7,100120,000.0,W*68
$GPGGA,155248.140,4059.858,N,11123.594,W,1,12,1.0,0.0,M,0.0,M,,*73
$GPGSA,A,3,01,02,03,04,05,06,07,08,09,10,11,12,1.0,1.0,1.0*30
$GPRMC,155248.140,A,4059.858,N,11123.594,W,038.9,060.7,100120,000.0,W*66
$GPGGA,155249.140,4059.864,N,11123.583,W,1,12,1.0,0.0,M,0.0,M,,*7B
$GPGSA,A,3,01,02,03,04,05,06,07,08,09,10,11,12,1.0,1.0,1.0*30
$GPRMC,155249.140,A,4059.864,N,11123.583,W,038.9,060.7,100120,000.0,W*6E
$GPGGA,155250.140,4059.870,N,11123.571,W,1,12,1.0,0.0,M,0.0,M,,*7B
$GPGSA,A,3,01,02,03,04,05,06,07,08,09,10,11,12,1.0,1.0,1.0*30
$GPRMC,155250.140,A,4059.870,N,11123.571,W,038.9,060.7,100120,000.0,W*6E
$GPGGA,155251.140,4059.877,N,11123.560,W,1,12,1.0,0.0,M,0.0,M,,*7D
$GPGSA,A,3,01,02,03,04,05,06,07,08,09,10,11,12,1.0,1.0,1.0*30
$GPRMC,155251.140,A,4059.877,N,11123.560,W,038.9,060.7,100120,000.0,W*68
$GPGGA,155252.140,4059.883,N,11123.548,W,1,12,1.0,0.0,M,0.0,M,,*7F
$GPGSA,A,3,01,02,03,04,05,06,07,08,09,10,11,12,1.0,1.0,1.0*30
$GPRMC,155252.140,A,4059.883,N,11123.548,W,038.9,060.7,100120,000.0,W*6A
$GPGGA,155253.140,4059.890,N,11123.537,W,1,12,1.0,0.0,M,0.0,M,,*74
$GPGSA,A,3,01,02,03,04,05,06,07,08,09,10,11,12,1.0,1.0,1.0*30
$GPRMC,155253.140,A,4059.890,N,11123.537,W,038.9,060.7,100120,000.0,W*61
$GPGGA,155254.140,4059.896,N,11123.525,W,1,12,1.0,0.0,M,0.0,M,,*76
$GPGSA,A,3,01,02,03,04,05,06,07,08,09,10,11,12,1.0,1.0,1.0*30
$GPRMC,155254.140,A,4059.896,N,11123.525,W,038.9,060.7,100120,000.0,W*63
$GPGGA,155255.140,4059.902,N,11123.514,W,1,12,1.0,0.0,M,0.0,M,,*79
$GPGSA,A,3,01,02,03,04,05,06,07,08,09,10,11,12,1.0,1.0,1.0*30
$GPRMC,155255.140,A,4059.902,N,11123.514,W,038.9,060.7,100120,000.0,W*6C
$GPGGA,155256.140,4059.909,N,11123.502,W,1,12,1.0,0.0,M,0.0,M,,*76
$GPGSA,A,3,01,02,03,04,05,06,07,08,09,10,11,12,1.0,1.0,1.0*30
$GPRMC,155256.140,A,4059.909,N,11123.502,W,038.9,060.7,100120,000.0,W*63
$GPGGA,155257.140,4059.915,N,11123.491,W,1,12,1.0,0.0,M,0.0,M,,*71
$GPGSA,A,3,01,02,03,04,05,06,07,08,09,10,11,12,1.0,1.0,1.0*30
$GPRMC,155257.140,A,4059.915,N,11123.491,W,038.9,060.7,100120,000.0,W*64
$GPGGA,155258.140,4059.922,N,11123.479,W,1,12,1.0,0.0,M,0.0,M,,*7C
$GPGSA,A,3,01,02,03,04,05,06,07,08,09,10,11,12,1.0,1.0,1.0*30
$GPRMC,155258.140,A,4059.922,N,11123.479,W,038.9,060.7,100120,000.0,W*69
$GPGGA,155259.140,4059.928,N,11123.468,W,1,12,1.0,0.0,M,0.0,M,,*77
$GPGSA,A,3,01,02,03,04,05,06,07,08,09,10,11,12,1.0,1.0,1.0*30
$GPRMC,155259.140,A,4059.928,N,11123.468,W,038.9,060.7,100120,000.0,W*62
$GPGGA,155300.140,4059.935,N,11123.456,W,1,12,1.0,0.0,M,0.0,M,,*7B
$GPGSA,A,3,01,02,03,04,05,06,07,08,09,10,11,12,1.0,1.0,1.0*30
$GPRMC,155300.140,A,4059.935,N,11123.456,W,038.9,060.7,100120,000.0,W*6E
$GPGGA,155301.140,4059.941,N,11123.445,W,1,12,1.0,0.0,M,0.0,M,,*7B
$GPGSA,A,3,01,02,03,04,05,06,07,08,09,10,11,12,1.0,1.0,1.0*30
$GPRMC,155301.140,A,4059.941,N,11123.445,W,038.9,060.7,100120,000.0,W*6E
$GPGGA,155302.140,4059.947,N,11123.433,W,1,12,1.0,0.0,M,0.0,M,,*7F
$GPGSA,A,3,01,02,03,04,05,06,07,08,09,10,11,12,1.0,1.0,1.0*30
$GPRMC,155302.140,A,4059.947,N,11123.433,W,038.9,060.7,100120,000.0,W*6A
$GPGGA,155303.140,4059.954,N,11123.421,W,1,12,1.0,0.0,M,0.0,M,,*7F
$GPGSA,A,3,01,02,03,04,05,06,07,08,09,10,11,12,1.0,1.0,1.0*30
$GPRMC,155303.140,A,4059.954,N,11123.421,W,038.9,060.7,100120,000.0,W*6A
$GPGGA,155304.140,4059.960,N,11123.410,W,1,12,1.0,0.0,M,0.0,M,,*7D
$GPGSA,A,3,01,02,03,04,05,06,07,08,09,10,11,12,1.0,1.0,1.0*30
$GPRMC,155304.140,A,4059.960,N,11123.410,W,038.9,060.7,100120,000.0,W*68
$GPGGA,155305.140,4059.967,N,11123.398,W,1,12,1.0,0.0,M,0.0,M,,*7C
$GPGSA,A,3,01,02,03,04,05,06,07,08,09,10,11,12,1.0,1.0,1.0*30
$GPRMC,155305.140,A,4059.967,N,11123.398,W,038.9,060.7,100120,000.0,W*69
$GPGGA,155306.140,4059.973,N,11123.387,W,1,12,1.0,0.0,M,0.0,M,,*74
$GPGSA,A,3,01,02,03,04,05,06,07,08,09,10,11,12,1.0,1.0,1.0*30
$GPRMC,155306.140,A,4059.973,N,11123.387,W,038.9,060.7,100120,000.0,W*61
$GPGGA,155307.140,4059.980,N,11123.375,W,1,12,1.0,0.0,M,0.0,M,,*74
$GPGSA,A,3,01,02,03,04,05,06,07,08,09,10,11,12,1.0,1.0,1.0*30
$GPRMC,155307.140,A,4059.980,N,11123.375,W,038.9,060.7,100120,000.0,W*61
$GPGGA,155308.140,4059.986,N,11123.364,W,1,12,1.0,0.0,M,0.0,M,,*7D
$GPGSA,A,3,01,02,03,04,05,06,07,08,09,10,11,12,1.0,1.0,1.0*30
$GPRMC,155308.140,A,4059.986,N,11123.364,W,038.9,060.7,100120,000.0,W*68
$GPGGA,155309.140,4059.992,N,11123.352,W,1,12,1.0,0.0,M,0.0,M,,*7C
$GPGSA,A,3,01,02,03,04,05,06,07,08,09,10,11,12,1.0,1.0,1.0*30
$GPRMC,155309.140,A,4059.992,N,11123.352,W,038.9,060.7,100120,000.0,W*69
$GPGGA,155310.140,4059.999,N,11123.341,W,1,12,1.0,0.0,M,0.0,M,,*7D
$GPGSA,A,3,01,02,03,04,05,06,07,08,09,10,11,12,1.0,1.0,1.0*30
$GPRMC,155310.140,A,4059.999,N,11123.341,W,038.9,060.7,100120,000.0,W*68
$GPGGA,155311.140,4100.005,N,11123.329,W,1,12,1.0,0.0,M,0.0,M,,*73
$GPGSA,A,3,01,02,03,04,05,06,07,08,09,10,11,12,1.0,1.0,1.0*30
$GPRMC,155311.140,A,4100.005,N,11123.329,W,038.9,060.7,100120,000.0,W*66
$GPGGA,155312.140,4100.012,N,11123.318,W,1,12,1.0,0.0,M,0.0,M,,*74
$GPGSA,A,3,01,02,03,04,05,06,07,08,09,10,11,12,1.0,1.0,1.0*30
$GPRMC,155312.140,A,4100.012,N,11123.318,W,038.9,060.7,100120,000.0,W*61
$GPGGA,155313.140,4100.018,N,11123.306,W,1,12,1.0,0.0,M,0.0,M,,*70
$GPGSA,A,3,01,02,03,04,05,06,07,08,09,10,11,12,1.0,1.0,1.0*30
$GPRMC,155313.140,A,4100.018,N,11123.306,W,038.9,060.7,100120,000.0,W*65
$GPGGA,155314.140,4100.025,N,11123.295,W,1,12,1.0,0.0,M,0.0,M,,*72
$GPGSA,A,3,01,02,03,04,05,06,07,08,09,10,11,12,1.0,1.0,1.0*30
$GPRMC,155314.140,A,4100.025,N,11123.295,W,038.9,060.7,100120,000.0,W*67
$GPGGA,155315.140,4100.031,N,11123.283,W,1,12,1.0,0.0,M,0.0,M,,*71
$GPGSA,A,3,01,02,03,04,05,06,07,08,09,10,11,12,1.0,1.0,1.0*30
$GPRMC,155315.140,A,4100.031,N,11123.283,W,038.9,060.7,100120,000.0,W*64
$GPGGA,155316.140,4100.037,N,11123.272,W,1,12,1.0,0.0,M,0.0,M,,*7A
$GPGSA,A,3,01,02,03,04,05,06,07,08,09,10,11,12,1.0,1.0,1.0*30
$GPRMC,155316.140,A,4100.037,N,11123.272,W,038.9,060.7,100120,000.0,W*6F
$GPGGA,155317.140,4100.044,N,11123.260,W,1,12,1.0,0.0,M,0.0,M,,*7C
$GPGSA,A,3,01,02,03,04,05,06,07,08,09,10,11,12,1.0,1.0,1.0*30
$GPRMC,155317.140,A,4100.044,N,11123.260,W,038.9,060.7,100120,000.0,W*69
$GPGGA,155318.140,4100.050,N,11123.249,W,1,12,1.0,0.0,M,0.0,M,,*7D
$GPGSA,A,3,01,02,03,04,05,06,07,08,09,10,11,12,1.0,1.0,1.0*30
$GPRMC,155318.140,A,4100.050,N,11123.249,W,038.9,060.7,100120,000.0,W*68
$GPGGA,155319.140,4100.057,N,11123.237,W,1,12,1.0,0.0,M,0.0,M,,*72
$GPGSA,A,3,01,02,03,04,05,06,07,08,09,10,11,12,1.0,1.0,1.0*30
$GPRMC,155319.140,A,4100.057,N,11123.237,W,038.9,060.7,100120,000.0,W*67
$GPGGA,155320.140,4100.063,N,11123.226,W,1,12,1.0,0.0,M,0.0,M,,*7F
$GPGSA,A,3,01,02,03,04,05,06,07,08,09,10,11,12,1.0,1.0,1.0*30
$GPRMC,155320.140,A,4100.063,N,11123.226,W,038.9,060.7,100120,000.0,W*6A
$GPGGA,155321.140,4100.070,N,11123.214,W,1,12,1.0,0.0,M,0.0,M,,*7D
$GPGSA,A,3,01,02,03,04,05,06,07,08,09,10,11,12,1.0,1.0,1.0*30
$GPRMC,155321.140,A,4100.070,N,11123.214,W,038.9,060.7,100120,000.0,W*68
$GPGGA,155322.140,4100.076,N,11123.203,W,1,12,1.0,0.0,M,0.0,M,,*7E
$GPGSA,A,3,01,02,03,04,05,06,07,08,09,10,11,12,1.0,1.0,1.0*30
$GPRMC,155322.140,A,4100.076,N,11123.203,W,038.9,060.7,100120,000.0,W*6B
$GPGGA,155323.140,4100.082,N,11123.191,W,1,12,1.0,0.0,M,0.0,M,,*7C
$GPGSA,A,3,01,02,03,04,05,06,07,08,09,10,11,12,1.0,1.0,1.0*30
$GPRMC,155323.140,A,4100.082,N,11123.191,W,038.9,060.7,100120,000.0,W*69
$GPGGA,155324.140,4100.089,N,11123.180,W,1,12,1.0,0.0,M,0.0,M,,*70
$GPGSA,A,3,01,02,03,04,05,06,07,08,09,10,11,12,1.0,1.0,1.0*30
$GPRMC,155324.140,A,4100.089,N,11123.180,W,038.9,060.7,100120,000.0,W*65
$GPGGA,155325.140,4100.095,N,11123.168,W,1,12,1.0,0.0,M,0.0,M,,*7A
$GPGSA,A,3,01,02,03,04,05,06,07,08,09,10,11,12,1.0,1.0,1.0*30
$GPRMC,155325.140,A,4100.095,N,11123.168,W,038.9,060.7,100120,000.0,W*6F
$GPGGA,155326.140,4100.102,N,11123.157,W,1,12,1.0,0.0,M,0.0,M,,*7A
$GPGSA,A,3,01,02,03,04,05,06,07,08,09,10,11,12,1.0,1.0,1.0*30
$GPRMC,155326.140,A,4100.102,N,11123.157,W,038.9,060.7,100120,000.0,W*6F
$GPGGA,155327.140,4100.108,N,11123.145,W,1,12,1.0,0.0,M,0.0,M,,*72
$GPGSA,A,3,01,02,03,04,05,06,07,08,09,10,11,12,1.0,1.0,1.0*30
$GPRMC,155327.140,A,4100.108,N,11123.145,W,038.9,060.7,100120,000.0,W*67
$GPGGA,155328.140,4100.115,N,11123.134,W,1,12,1.0,0.0,M,0.0,M,,*77
$GPGSA,A,3,01,02,03,04,05,06,07,08,09,10,11,12,1.0,1.0,1.0*30
$GPRMC,155328.140,A,4100.115,N,11123.134,W,038.9,060.7,100120,000.0,W*62
$GPGGA,155329.140,4100.121,N,11123.122,W,1,12,1.0,0.0,M,0.0,M,,*76
$GPGSA,A,3,01,02,03,04,05,06,07,08,09,10,11,12,1.0,1.0,1.0*30
$GPRMC,155329.140,A,4100.121,N,11123.122,W,038.9,060.7,100120,000.0,W*63
$GPGGA,155330.140,4100.127,N,11123.111,W,1,12,1.0,0.0,M,0.0,M,,*78
$GPGSA,A,3,01,02,03,04,05,06,07,08,09,10,11,12,1.0,1.0,1.0*30
$GPRMC,155330.140,A,4100.127,N,11123.111,W,038.9,060.7,100120,000.0,W*6D
$GPGGA,155331.140,4100.134,N,11123.099,W,1,12,1.0,0.0,M,0.0,M,,*7A
$GPGSA,A,3,01,02,03,04,05,06,07,08,09,10,11,12,1.0,1.0,1.0*30
$GPRMC,155331.140,A,4100.134,N,11123.099,W,038.9,060.7,100120,000.0,W*6F
$GPGGA,155332.140,4100.140,N,11123.088,W,1,12,1.0,0.0,M,0.0,M,,*7A
$GPGSA,A,3,01,02,03,04,05,06,07,08,09,10,11,12,1.0,1.0,1.0*30
$GPRMC,155332.140,A,4100.140,N,11123.088,W,038.9,060.7,100120,000.0,W*6F
$GPGGA,155333.140,4100.147,N,11123.076,W,1,12,1.0,0.0,M,0.0,M,,*7D
$GPGSA,A,3,01,02,03,04,05,06,07,08,09,10,11,12,1.0,1.0,1.0*30
$GPRMC,155333.140,A,4100.147,N,11123.076,W,038.9,060.7,100120,000.0,W*68
$GPGGA,155334.140,4100.153,N,11123.065,W,1,12,1.0,0.0,M,0.0,M,,*7D
$GPGSA,A,3,01,02,03,04,05,06,07,08,09,10,11,12,1.0,1.0,1.0*30
$GPRMC,155334.140,A,4100.153,N,11123.065,W,038.9,060.7,100120,000.0,W*68
$GPGGA,155335.140,4100.159,N,11123.053,W,1,12,1.0,0.0,M,0.0,M,,*73
$GPGSA,A,3,01,02,03,04,05,06,07,08,09,10,11,12,1.0,1.0,1.0*30
$GPRMC,155335.140,A,4100.159,N,11123.053,W,038.9,060.7,100120,000.0,W*66
$GPGGA,155336.140,4100.166,N,11123.042,W,1,12,1.0,0.0,M,0.0,M,,*7C
$GPGSA,A,3,01,02,03,04,05,06,07,08,09,10,11,12,1.0,1.0,1.0*30
$GPRMC,155336.140,A,4100.166,N,11123.042,W,038.9,060.7,100120,000.0,W*69
$GPGGA,155337.140,4100.172,N,11123.030,W,1,12,1.0,0.0,M,0.0,M,,*7D
$GPGSA,A,3,01,02,03,04,05,06,07,08,09,10,11,12,1.0,1.0,1.0*30
$GPRMC,155337.140,A,4100.172,N,11123.030,W,038.9,060.7,100120,000.0,W*68
$GPGGA,155338.140,4100.179,N,11123.019,W,1,12,1.0,0.0,M,0.0,M,,*72
$GPGSA,A,3,01,02,03,04,05,06,07,08,09,10,11,12,1.0,1.0,1.0*30
$GPRMC,155338.140,A,4100.179,N,11123.019,W,038.9,060.7,100120,000.0,W*67
$GPGGA,155339.140,4100.185,N,11123.007,W,1,12,1.0,0.0,M,0.0,M,,*7F
$GPGSA,A,3,01,02,03,04,05,06,07,08,09,10,11,12,1.0,1.0,1.0*30
$GPRMC,155339.140,A,4100.185,N,11123.007,W,038.9,060.7,100120,000.0,W*6A
$GPGGA,155340.140,4100.192,N,11122.996,W,1,12,1.0,0.0,M,0.0,M,,*77
$GPGSA,A,3,01,02,03,04,05,06,07,08,09,10,11,12,1.0,1.0,1.0*30
$GPRMC,155340.140,A,4100.192,N,11122.996,W,038.9,060.7,100120,000.0,W*62
$GPGGA,155341.140,4100.198,N,11122.984,W,1,12,1.0,0.0,M,0.0,M,,*7F
$GPGSA,A,3,01,02,03,04,05,06,07,08,09,10,11,12,1.0,1.0,1.0*30
$GPRMC,155341.140,A,4100.198,N,11122.984,W,038.9,060.7,100120,000.0,W*6A
