$GPGGA,231317.385,4051.298,N,11154.461,W,1,12,1.0,0.0,M,0.0,M,,*77
$GPGSA,A,3,01,02,03,04,05,06,07,08,09,10,11,12,1.0,1.0,1.0*30
$GPRMC,231317.385,A,4051.298,N,11154.461,W,038.9,221.5,090120,000.0,W*6F
$GPGGA,231318.385,4051.289,N,11154.469,W,1,12,1.0,0.0,M,0.0,M,,*70
$GPGSA,A,3,01,02,03,04,05,06,07,08,09,10,11,12,1.0,1.0,1.0*30
$GPRMC,231318.385,A,4051.289,N,11154.469,W,038.9,221.5,090120,000.0,W*68
$GPGGA,231319.385,4051.280,N,11154.477,W,1,12,1.0,0.0,M,0.0,M,,*77
$GPGSA,A,3,01,02,03,04,05,06,07,08,09,10,11,12,1.0,1.0,1.0*30
$GPRMC,231319.385,A,4051.280,N,11154.477,W,038.9,221.5,090120,000.0,W*6F
$GPGGA,231320.385,4051.271,N,11154.485,W,1,12,1.0,0.0,M,0.0,M,,*7E
$GPGSA,A,3,01,02,03,04,05,06,07,08,09,10,11,12,1.0,1.0,1.0*30
$GPRMC,231320.385,A,4051.271,N,11154.485,W,038.9,221.5,090120,000.0,W*66
$GPGGA,231321.385,4051.262,N,11154.493,W,1,12,1.0,0.0,M,0.0,M,,*7A
$GPGSA,A,3,01,02,03,04,05,06,07,08,09,10,11,12,1.0,1.0,1.0*30
$GPRMC,231321.385,A,4051.262,N,11154.493,W,038.9,221.5,090120,000.0,W*62
$GPGGA,231322.385,4051.253,N,11154.501,W,1,12,1.0,0.0,M,0.0,M,,*71
$GPGSA,A,3,01,02,03,04,05,06,07,08,09,10,11,12,1.0,1.0,1.0*30
$GPRMC,231322.385,A,4051.253,N,11154.501,W,038.9,221.5,090120,000.0,W*69
$GPGGA,231323.385,4051.244,N,11154.509,W,1,12,1.0,0.0,M,0.0,M,,*7E
$GPGSA,A,3,01,02,03,04,05,06,07,08,09,10,11,12,1.0,1.0,1.0*30
$GPRMC,231323.385,A,4051.244,N,11154.509,W,038.9,221.5,090120,000.0,W*66
$GPGGA,231324.385,4051.235,N,11154.517,W,1,12,1.0,0.0,M,0.0,M,,*70
$GPGSA,A,3,01,02,03,04,05,06,07,08,09,10,11,12,1.0,1.0,1.0*30
$GPRMC,231324.385,A,4051.235,N,11154.517,W,038.9,221.5,090120,000.0,W*68
$GPGGA,231325.385,4051.226,N,11154.524,W,1,12,1.0,0.0,M,0.0,M,,*73
$GPGSA,A,3,01,02,03,04,05,06,07,08,09,10,11,12,1.0,1.0,1.0*30
$GPRMC,231325.385,A,4051.226,N,11154.524,W,038.9,221.5,090120,000.0,W*6B
$GPGGA,231326.385,4051.217,N,11154.532,W,1,12,1.0,0.0,M,0.0,M,,*75
$GPGSA,A,3,01,02,03,04,05,06,07,08,09,10,11,12,1.0,1.0,1.0*30
$GPRMC,231326.385,A,4051.217,N,11154.532,W,038.9,221.5,090120,000.0,W*6D
$GPGGA,231327.385,4051.208,N,11154.540,W,1,12,1.0,0.0,M,0.0,M,,*7F
$GPGSA,A,3,01,02,03,04,05,06,07,08,09,10,11,12,1.0,1.0,1.0*30
$GPRMC,231327.385,A,4051.208,N,11154.540,W,038.9,221.5,090120,000.0,W*67
$GPGGA,231328.385,4051.199,N,11154.548,W,1,12,1.0,0.0,M,0.0,M,,*73
$GPGSA,A,3,01,02,03,04,05,06,07,08,09,10,11,12,1.0,1.0,1.0*30
$GPRMC,231328.385,A,4051.199,N,11154.548,W,038.9,221.5,090120,000.0,W*6B
$GPGGA,231329.385,4051.190,N,11154.556,W,1,12,1.0,0.0,M,0.0,M,,*74
$GPGSA,A,3,01,02,03,04,05,06,07,08,09,10,11,12,1.0,1.0,1.0*30
$GPRMC,231329.385,A,4051.190,N,11154.556,W,038.9,221.5,090120,000.0,W*6C
$GPGGA,231330.385,4051.181,N,11154.564,W,1,12,1.0,0.0,M,0.0,M,,*7D
$GPGSA,A,3,01,02,03,04,05,06,07,08,09,10,11,12,1.0,1.0,1.0*30
$GPRMC,231330.385,A,4051.181,N,11154.564,W,038.9,221.5,090120,000.0,W*65
$GPGGA,231331.385,4051.172,N,11154.572,W,1,12,1.0,0.0,M,0.0,M,,*77
$GPGSA,A,3,01,02,03,04,05,06,07,08,09,10,11,12,1.0,1.0,1.0*30
$GPRMC,231331.385,A,4051.172,N,11154.572,W,038.9,221.5,090120,000.0,W*6F
$GPGGA,231332.385,4051.163,N,11154.580,W,1,12,1.0,0.0,M,0.0,M,,*79
$GPGSA,A,3,01,02,03,04,05,06,07,08,09,10,11,12,1.0,1.0,1.0*30
$GPRMC,231332.385,A,4051.163,N,11154.580,W,038.9,221.5,090120,000.0,W*61
$GPGGA,231333.385,4051.154,N,11154.588,W,1,12,1.0,0.0,M,0.0,M,,*74
$GPGSA,A,3,01,02,03,04,05,06,07,08,09,10,11,12,1.0,1.0,1.0*30
$GPRMC,231333.385,A,4051.154,N,11154.588,W,038.9,221.5,090120,000.0,W*6C
$GPGGA,231334.385,4051.145,N,11154.596,W,1,12,1.0,0.0,M,0.0,M,,*7C
$GPGSA,A,3,01,02,03,04,05,06,07,08,09,10,11,12,1.0,1.0,1.0*30
$GPRMC,231334.385,A,4051.145,N,11154.596,W,038.9,221.5,090120,000.0,W*64
$GPGGA,231335.385,4051.137,N,11154.604,W,1,12,1.0,0.0,M,0.0,M,,*70
$GPGSA,A,3,01,02,03,04,05,06,07,08,09,10,11,12,1.0,1.0,1.0*30
$GPRMC,231335.385,A,4051.137,N,11154.604,W,038.9,221.5,090120,000.0,W*68
$GPGGA,231336.385,4051.128,N,11154.612,W,1,12,1.0,0.0,M,0.0,M,,*7A
$GPGSA,A,3,01,02,03,04,05,06,07,08,09,10,11,12,1.0,1.0,1.0*30
$GPRMC,231336.385,A,4051.128,N,11154.612,W,038.9,221.5,090120,000.0,W*62
$GPGGA,231337.385,4051.119,N,11154.620,W,1,12,1.0,0.0,M,0.0,M,,*78
$GPGSA,A,3,01,02,03,04,05,06,07,08,09,10,11,12,1.0,1.0,1.0*30
$GPRMC,231337.385,A,4051.119,N,11154.620,W,038.9,221.5,090120,000.0,W*60
$GPGGA,231338.385,4051.110,N,11154.628,W,1,12,1.0,0.0,M,0.0,M,,*76
$GPGSA,A,3,01,02,03,04,05,06,07,08,09,10,11,12,1.0,1.0,1.0*30
$GPRMC,231338.385,A,4051.110,N,11154.628,W,038.9,221.5,090120,000.0,W*6E
$GPGGA,231339.385,4051.101,N,11154.636,W,1,12,1.0,0.0,M,0.0,M,,*78
$GPGSA,A,3,01,02,03,04,05,06,07,08,09,10,11,12,1.0,1.0,1.0*30
$GPRMC,231339.385,A,4051.101,N,11154.636,W,038.9,221.5,090120,000.0,W*60
$GPGGA,231340.385,4051.092,N,11154.644,W,1,12,1.0,0.0,M,0.0,M,,*78
$GPGSA,A,3,01,02,03,04,05,06,07,08,09,10,11,12,1.0,1.0,1.0*30
$GPRMC,231340.385,A,4051.092,N,11154.644,W,038.9,221.5,090120,000.0,W*60
$GPGGA,231341.385,4051.083,N,11154.652,W,1,12,1.0,0.0,M,0.0,M,,*7E
$GPGSA,A,3,01,02,03,04,05,06,07,08,09,10,11,12,1.0,1.0,1.0*30
$GPRMC,231341.385,A,4051.083,N,11154.652,W,038.9,221.5,090120,000.0,W*66
$GPGGA,231342.385,4051.074,N,11154.660,W,1,12,1.0,0.0,M,0.0,M,,*74
$GPGSA,A,3,01,02,03,04,05,06,07,08,09,10,11,12,1.0,1.0,1.0*30
$GPRMC,231342.385,A,4051.074,N,11154.660,W,038.9,221.5,090120,000.0,W*6C
$GPGGA,231343.385,4051.065,N,11154.667,W,1,12,1.0,0.0,M,0.0,M,,*72
$GPGSA,A,3,01,02,03,04,05,06,07,08,09,10,11,12,1.0,1.0,1.0*30
$GPRMC,231343.385,A,4051.065,N,11154.667,W,038.9,221.5,090120,000.0,W*6A
$GPGGA,231344.385,4051.056,N,11154.675,W,1,12,1.0,0.0,M,0.0,M,,*76
$GPGSA,A,3,01,02,03,04,05,06,07,08,09,10,11,12,1.0,1.0,1.0*30
$GPRMC,231344.385,A,4051.056,N,11154.675,W,038.9,221.5,090120,000.0,W*6E
$GPGGA,231345.385,4051.047,N,11154.683,W,1,12,1.0,0.0,M,0.0,M,,*7E
$GPGSA,A,3,01,02,03,04,05,06,07,08,09,10,11,12,1.0,1.0,1.0*30
$GPRMC,231345.385,A,4051.047,N,11154.683,W,038.9,221.5,090120,000.0,W*66
$GPGGA,231346.385,4051.038,N,11154.691,W,1,12,1.0,0.0,M,0.0,M,,*76
$GPGSA,A,3,01,02,03,04,05,06,07,08,09,10,11,12,1.0,1.0,1.0*30
$GPRMC,231346.385,A,4051.038,N,11154.691,W,038.9,221.5,090120,000.0,W*6E
$GPGGA,231347.385,4051.029,N,11154.699,W,1,12,1.0,0.0,M,0.0,M,,*7F
$GPGSA,A,3,01,02,03,04,05,06,07,08,09,10,11,12,1.0,1.0,1.0*30
$GPRMC,231347.385,A,4051.029,N,11154.699,W,038.9,221.5,090120,000.0,W*67
$GPGGA,231348.385,4051.020,N,11154.707,W,1,12,1.0,0.0,M,0.0,M,,*7F
$GPGSA,A,3,01,02,03,04,05,06,07,08,09,10,11,12,1.0,1.0,1.0*30
$GPRMC,231348.385,A,4051.020,N,11154.707,W,038.9,221.5,090120,000.0,W*67
$GPGGA,231349.385,4051.011,N,11154.715,W,1,12,1.0,0.0,M,0.0,M,,*7F
$GPGSA,A,3,01,02,03,04,05,06,07,08,09,10,11,12,1.0,1.0,1.0*30
$GPRMC,231349.385,A,4051.011,N,11154.715,W,038.9,221.5,090120,000.0,W*67
$GPGGA,231350.385,4051.002,N,11154.723,W,1,12,1.0,0.0,M,0.0,M,,*70
$GPGSA,A,3,01,02,03,04,05,06,07,08,09,10,11,12,1.0,1.0,1.0*30
$GPRMC,231350.385,A,4051.002,N,11154.723,W,038.9,221.5,090120,000.0,W*68
$GPGGA,231351.385,4050.993,N,11154.731,W,1,12,1.0,0.0,M,0.0,M,,*72
$GPGSA,A,3,01,02,03,04,05,06,07,08,09,10,11,12,1.0,1.0,1.0*30
$GPRMC,231351.385,A,4050.993,N,11154.731,W,038.9,221.5,090120,000.0,W*6A
$GPGGA,231352.385,4050.984,N,11154.739,W,1,12,1.0,0.0,M,0.0,M,,*7F
$GPGSA,A,3,01,02,03,04,05,06,07,08,09,10,11,12,1.0,1.0,1.0*30
$GPRMC,231352.385,A,4050.984,N,11154.739,W,038.9,221.5,090120,000.0,W*67
$GPGGA,231353.385,4050.975,N,11154.747,W,1,12,1.0,0.0,M,0.0,M,,*79
$GPGSA,A,3,01,02,03,04,05,06,07,08,09,10,11,12,1.0,1.0,1.0*30
$GPRMC,231353.385,A,4050.975,N,11154.747,W,038.9,221.5,090120,000.0,W*61
$GPGGA,231354.385,4050.966,N,11154.755,W,1,12,1.0,0.0,M,0.0,M,,*7F
$GPGSA,A,3,01,02,03,04,05,06,07,08,09,10,11,12,1.0,1.0,1.0*30
$GPRMC,231354.385,A,4050.966,N,11154.755,W,038.9,221.5,090120,000.0,W*67
$GPGGA,231355.385,4050.957,N,11154.763,W,1,12,1.0,0.0,M,0.0,M,,*79
$GPGSA,A,3,01,02,03,04,05,06,07,08,09,10,11,12,1.0,1.0,1.0*30
$GPRMC,231355.385,A,4050.957,N,11154.763,W,038.9,221.5,090120,000.0,W*61
$GPGGA,231356.385,4050.948,N,11154.771,W,1,12,1.0,0.0,M,0.0,M,,*77
$GPGSA,A,3,01,02,03,04,05,06,07,08,09,10,11,12,1.0,1.0,1.0*30
$GPRMC,231356.385,A,4050.948,N,11154.771,W,038.9,221.5,090120,000.0,W*6F
$GPGGA,231357.385,4050.939,N,11154.779,W,1,12,1.0,0.0,M,0.0,M,,*78
$GPGSA,A,3,01,02,03,04,05,06,07,08,09,10,11,12,1.0,1.0,1.0*30
$GPRMC,231357.385,A,4050.939,N,11154.779,W,038.9,221.5,090120,000.0,W*60
$GPGGA,231358.385,4050.930,N,11154.787,W,1,12,1.0,0.0,M,0.0,M,,*7F
$GPGSA,A,3,01,02,03,04,05,06,07,08,09,10,11,12,1.0,1.0,1.0*30
$GPRMC,231358.385,A,4050.930,N,11154.787,W,038.9,221.5,090120,000.0,W*67
$GPGGA,231359.385,4050.921,N,11154.795,W,1,12,1.0,0.0,M,0.0,M,,*7D
$GPGSA,A,3,01,02,03,04,05,06,07,08,09,10,11,12,1.0,1.0,1.0*30
$GPRMC,231359.385,A,4050.921,N,11154.795,W,038.9,208.3,090120,000.0,W*68
$GPGGA,231400.385,4050.911,N,11154.800,W,1,12,1.0,0.0,M,0.0,M,,*76
$GPGSA,A,3,01,02,03,04,05,06,07,08,09,10,11,12,1.0,1.0,1.0*30
$GPRMC,231400.385,A,4050.911,N,11154.800,W,038.9,208.3,090120,000.0,W*63
$GPGGA,231401.385,4050.901,N,11154.805,W,1,12,1.0,0.0,M,0.0,M,,*73
$GPGSA,A,3,01,02,03,04,05,06,07,08,09,10,11,12,1.0,1.0,1.0*30
$GPRMC,231401.385,A,4050.901,N,11154.805,W,038.9,208.3,090120,000.0,W*66
$GPGGA,231402.385,4050.891,N,11154.811,W,1,12,1.0,0.0,M,0.0,M,,*7D
$GPGSA,A,3,01,02,03,04,05,06,07,08,09,10,11,12,1.0,1.0,1.0*30
$GPRMC,231402.385,A,4050.891,N,11154.811,W,038.9,208.3,090120,000.0,W*68
$GPGGA,231403.385,4050.881,N,11154.816,W,1,12,1.0,0.0,M,0.0,M,,*7A
$GPGSA,A,3,01,02,03,04,05,06,07,08,09,10,11,12,1.0,1.0,1.0*30
$GPRMC,231403.385,A,4050.881,N,11154.816,W,038.9,208.3,090120,000.0,W*6F
$GPGGA,231404.385,4050.871,N,11154.821,W,1,12,1.0,0.0,M,0.0,M,,*76
$GPGSA,A,3,01,02,03,04,05,06,07,08,09,10,11,12,1.0,1.0,1.0*30
$GPRMC,231404.385,A,4050.871,N,11154.821,W,038.9,208.3,090120,000.0,W*63
$GPGGA,231405.385,4050.861,N,11154.827,W,1,12,1.0,0.0,M,0.0,M,,*70
$GPGSA,A,3,01,02,03,04,05,06,07,08,09,10,11,12,1.0,1.0,1.0*30
$GPRMC,231405.385,A,4050.861,N,11154.827,W,038.9,208.3,090120,000.0,W*65
$GPGGA,231406.385,4050.851,N,11154.832,W,1,12,1.0,0.0,M,0.0,M,,*74
$GPGSA,A,3,01,02,03,04,05,06,07,08,09,10,11,12,1.0,1.0,1.0*30
$GPRMC,231406.385,A,4050.851,N,11154.832,W,038.9,208.3,090120,000.0,W*61
$GPGGA,231407.385,4050.841,N,11154.838,W,1,12,1.0,0.0,M,0.0,M,,*7E
$GPGSA,A,3,01,02,03,04,05,06,07,08,09,10,11,12,1.0,1.0,1.0*30
$GPRMC,231407.385,A,4050.841,N,11154.838,W,038.9,208.3,090120,000.0,W*6B
$GPGGA,231408.385,4050.831,N,11154.843,W,1,12,1.0,0.0,M,0.0,M,,*7A
$GPGSA,A,3,01,02,03,04,05,06,07,08,09,10,11,12,1.0,1.0,1.0*30
$GPRMC,231408.385,A,4050.831,N,11154.843,W,038.9,208.3,090120,000.0,W*6F
$GPGGA,231409.385,4050.821,N,11154.848,W,1,12,1.0,0.0,M,0.0,M,,*71
$GPGSA,A,3,01,02,03,04,05,06,07,08,09,10,11,12,1.0,1.0,1.0*30
$GPRMC,231409.385,A,4050.821,N,11154.848,W,038.9,208.3,090120,000.0,W*64
$GPGGA,231410.385,4050.811,N,11154.854,W,1,12,1.0,0.0,M,0.0,M,,*77
$GPGSA,A,3,01,02,03,04,05,06,07,08,09,10,11,12,1.0,1.0,1.0*30
$GPRMC,231410.385,A,4050.811,N,11154.854,W,038.9,208.3,090120,000.0,W*62
$GPGGA,231411.385,4050.801,N,11154.859,W,1,12,1.0,0.0,M,0.0,M,,*7A
$GPGSA,A,3,01,02,03,04,05,06,07,08,09,10,11,12,1.0,1.0,1.0*30
$GPRMC,231411.385,A,4050.801,N,11154.859,W,038.9,208.3,090120,000.0,W*6F
$GPGGA,231412.385,4050.791,N,11154.865,W,1,12,1.0,0.0,M,0.0,M,,*70
$GPGSA,A,3,01,02,03,04,05,06,07,08,09,10,11,12,1.0,1.0,1.0*30
$GPRMC,231412.385,A,4050.791,N,11154.865,W,038.9,208.3,090120,000.0,W*65
$GPGGA,231413.385,4050.781,N,11154.870,W,1,12,1.0,0.0,M,0.0,M,,*74
$GPGSA,A,3,01,02,03,04,05,06,07,08,09,10,11,12,1.0,1.0,1.0*30
$GPRMC,231413.385,A,4050.781,N,11154.870,W,038.9,192.3,090120,000.0,W*61
$GPGGA,231414.385,4050.771,N,11154.872,W,1,12,1.0,0.0,M,0.0,M,,*7E
$GPGSA,A,3,01,02,03,04,05,06,07,08,09,10,11,12,1.0,1.0,1.0*30
$GPRMC,231414.385,A,4050.771,N,11154.872,W,038.9,192.3,090120,000.0,W*6B
$GPGGA,231415.385,4050.760,N,11154.875,W,1,12,1.0,0.0,M,0.0,M,,*78
$GPGSA,A,3,01,02,03,04,05,06,07,08,09,10,11,12,1.0,1.0,1.0*30
$GPRMC,231415.385,A,4050.760,N,11154.875,W,038.9,192.3,090120,000.0,W*6D
$GPGGA,231416.385,4050.750,N,11154.877,W,1,12,1.0,0.0,M,0.0,M,,*7A
$GPGSA,A,3,01,02,03,04,05,06,07,08,09,10,11,12,1.0,1.0,1.0*30
$GPRMC,231416.385,A,4050.750,N,11154.877,W,038.9,192.3,090120,000.0,W*6F
$GPGGA,231417.385,4050.739,N,11154.879,W,1,12,1.0,0.0,M,0.0,M,,*7A
$GPGSA,A,3,01,02,03,04,05,06,07,08,09,10,11,12,1.0,1.0,1.0*30
$GPRMC,231417.385,A,4050.739,N,11154.879,W,038.9,192.3,090120,000.0,W*6F
$GPGGA,231418.385,4050.728,N,11154.882,W,1,12,1.0,0.0,M,0.0,M,,*71
$GPGSA,A,3,01,02,03,04,05,06,07,08,09,10,11,12,1.0,1.0,1.0*30
$GPRMC,231418.385,A,4050.728,N,11154.882,W,038.9,192.3,090120,000.0,W*64
$GPGGA,231419.385,4050.718,N,11154.884,W,1,12,1.0,0.0,M,0.0,M,,*75
$GPGSA,A,3,01,02,03,04,05,06,07,08,09,10,11,12,1.0,1.0,1.0*30
$GPRMC,231419.385,A,4050.718,N,11154.884,W,038.9,192.3,090120,000.0,W*60
$GPGGA,231420.385,4050.707,N,11154.886,W,1,12,1.0,0.0,M,0.0,M,,*73
$GPGSA,A,3,01,02,03,04,05,06,07,08,09,10,11,12,1.0,1.0,1.0*30
$GPRMC,231420.385,A,4050.707,N,11154.886,W,038.9,192.3,090120,000.0,W*66
$GPGGA,231421.385,4050.696,N,11154.889,W,1,12,1.0,0.0,M,0.0,M,,*74
$GPGSA,A,3,01,02,03,04,05,06,07,08,09,10,11,12,1.0,1.0,1.0*30
$GPRMC,231421.385,A,4050.696,N,11154.889,W,038.9,192.3,090120,000.0,W*61
$GPGGA,231422.385,4050.686,N,11154.891,W,1,12,1.0,0.0,M,0.0,M,,*7F
$GPGSA,A,3,01,02,03,04,05,06,07,08,09,10,11,12,1.0,1.0,1.0*30
$GPRMC,231422.385,A,4050.686,N,11154.891,W,038.9,192.3,090120,000.0,W*6A
$GPGGA,231423.385,4050.675,N,11154.893,W,1,12,1.0,0.0,M,0.0,M,,*70
$GPGSA,A,3,01,02,03,04,05,06,07,08,09,10,11,12,1.0,1.0,1.0*30
$GPRMC,231423.385,A,4050.675,N,11154.893,W,038.9,192.3,090120,000.0,W*65
$GPGGA,231424.385,4050.664,N,11154.895,W,1,12,1.0,0.0,M,0.0,M,,*71
$GPGSA,A,3,01,02,03,04,05,06,07,08,09,10,11,12,1.0,1.0,1.0*30
$GPRMC,231424.385,A,4050.664,N,11154.895,W,038.9,192.3,090120,000.0,W*64
$GPGGA,231425.385,4050.654,N,11154.898,W,1,12,1.0,0.0,M,0.0,M,,*7E
$GPGSA,A,3,01,02,03,04,05,06,07,08,09,10,11,12,1.0,1.0,1.0*30
$GPRMC,231425.385,A,4050.654,N,11154.898,W,038.9,192.3,090120,000.0,W*6B
$GPGGA,231426.385,4050.643,N,11154.900,W,1,12,1.0,0.0,M,0.0,M,,*7B
$GPGSA,A,3,01,02,03,04,05,06,07,08,09,10,11,12,1.0,1.0,1.0*30
$GPRMC,231426.385,A,4050.643,N,11154.900,W,038.9,192.3,090120,000.0,W*6E
$GPGGA,231427.385,4050.632,N,11154.902,W,1,12,1.0,0.0,M,0.0,M,,*7E
$GPGSA,A,3,01,02,03,04,05,06,07,08,09,10,11,12,1.0,1.0,1.0*30
$GPRMC,231427.385,A,4050.632,N,11154.902,W,038.9,192.3,090120,000.0,W*6B
$GPGGA,231428.385,4050.622,N,11154.905,W,1,12,1.0,0.0,M,0.0,M,,*77
$GPGSA,A,3,01,02,03,04,05,06,07,08,09,10,11,12,1.0,1.0,1.0*30
$GPRMC,231428.385,A,4050.622,N,11154.905,W,038.9,182.2,090120,000.0,W*62
$GPGGA,231429.385,4050.611,N,11154.905,W,1,12,1.0,0.0,M,0.0,M,,*76
$GPGSA,A,3,01,02,03,04,05,06,07,08,09,10,11,12,1.0,1.0,1.0*30
$GPRMC,231429.385,A,4050.611,N,11154.905,W,038.9,182.2,090120,000.0,W*63
$GPGGA,231430.385,4050.600,N,11154.906,W,1,12,1.0,0.0,M,0.0,M,,*7D
$GPGSA,A,3,01,02,03,04,05,06,07,08,09,10,11,12,1.0,1.0,1.0*30
$GPRMC,231430.385,A,4050.600,N,11154.906,W,038.9,182.2,090120,000.0,W*68
$GPGGA,231431.385,4050.589,N,11154.906,W,1,12,1.0,0.0,M,0.0,M,,*7E
$GPGSA,A,3,01,02,03,04,05,06,07,08,09,10,11,12,1.0,1.0,1.0*30
$GPRMC,231431.385,A,4050.589,N,11154.906,W,038.9,182.2,090120,000.0,W*6B
$GPGGA,231432.385,4050.579,N,11154.906,W,1,12,1.0,0.0,M,0.0,M,,*72
$GPGSA,A,3,01,02,03,04,05,06,07,08,09,10,11,12,1.0,1.0,1.0*30
$GPRMC,231432.385,A,4050.579,N,11154.906,W,038.9,182.2,090120,000.0,W*67
$GPGGA,231433.385,4050.568,N,11154.907,W,1,12,1.0,0.0,M,0.0,M,,*72
$GPGSA,A,3,01,02,03,04,05,06,07,08,09,10,11,12,1.0,1.0,1.0*30
$GPRMC,231433.385,A,4050.568,N,11154.907,W,038.9,182.2,090120,000.0,W*67
$GPGGA,231434.385,4050.557,N,11154.907,W,1,12,1.0,0.0,M,0.0,M,,*79
$GPGSA,A,3,01,02,03,04,05,06,07,08,09,10,11,12,1.0,1.0,1.0*30
$GPRMC,231434.385,A,4050.557,N,11154.907,W,038.9,182.2,090120,000.0,W*6C
$GPGGA,231435.385,4050.546,N,11154.908,W,1,12,1.0,0.0,M,0.0,M,,*77
$GPGSA,A,3,01,02,03,04,05,06,07,08,09,10,11,12,1.0,1.0,1.0*30
$GPRMC,231435.385,A,4050.546,N,11154.908,W,038.9,182.2,090120,000.0,W*62
$GPGGA,231436.385,4050.535,N,11154.908,W,1,12,1.0,0.0,M,0.0,M,,*70
$GPGSA,A,3,01,02,03,04,05,06,07,08,09,10,11,12,1.0,1.0,1.0*30
$GPRMC,231436.385,A,4050.535,N,11154.908,W,038.9,182.2,090120,000.0,W*65
$GPGGA,231437.385,4050.525,N,11154.909,W,1,12,1.0,0.0,M,0.0,M,,*71
$GPGSA,A,3,01,02,03,04,05,06,07,08,09,10,11,12,1.0,1.0,1.0*30
$GPRMC,231437.385,A,4050.525,N,11154.909,W,038.9,182.2,090120,000.0,W*64
$GPGGA,231438.385,4050.514,N,11154.909,W,1,12,1.0,0.0,M,0.0,M,,*7C
$GPGSA,A,3,01,02,03,04,05,06,07,08,09,10,11,12,1.0,1.0,1.0*30
$GPRMC,231438.385,A,4050.514,N,11154.909,W,038.9,182.2,090120,000.0,W*69
$GPGGA,231439.385,4050.503,N,11154.909,W,1,12,1.0,0.0,M,0.0,M,,*7B
$GPGSA,A,3,01,02,03,04,05,06,07,08,09,10,11,12,1.0,1.0,1.0*30
$GPRMC,231439.385,A,4050.503,N,11154.909,W,038.9,182.2,090120,000.0,W*6E
$GPGGA,231440.385,4050.492,N,11154.910,W,1,12,1.0,0.0,M,0.0,M,,*74
$GPGSA,A,3,01,02,03,04,05,06,07,08,09,10,11,12,1.0,1.0,1.0*30
$GPRMC,231440.385,A,4050.492,N,11154.910,W,038.9,182.2,090120,000.0,W*61
$GPGGA,231441.385,4050.481,N,11154.910,W,1,12,1.0,0.0,M,0.0,M,,*77
$GPGSA,A,3,01,02,03,04,05,06,07,08,09,10,11,12,1.0,1.0,1.0*30
$GPRMC,231441.385,A,4050.481,N,11154.910,W,038.9,182.2,090120,000.0,W*62
$GPGGA,231442.385,4050.471,N,11154.911,W,1,12,1.0,0.0,M,0.0,M,,*7A
$GPGSA,A,3,01,02,03,04,05,06,07,08,09,10,11,12,1.0,1.0,1.0*30
$GPRMC,231442.385,A,4050.471,N,11154.911,W,038.9,182.2,090120,000.0,W*6F
$GPGGA,231443.385,4050.460,N,11154.911,W,1,12,1.0,0.0,M,0.0,M,,*7B
$GPGSA,A,3,01,02,03,04,05,06,07,08,09,10,11,12,1.0,1.0,1.0*30
$GPRMC,231443.385,A,4050.460,N,11154.911,W,038.9,182.2,090120,000.0,W*6E
$GPGGA,231444.385,4050.449,N,11154.912,W,1,12,1.0,0.0,M,0.0,M,,*74
$GPGSA,A,3,01,02,03,04,05,06,07,08,09,10,11,12,1.0,1.0,1.0*30
$GPRMC,231444.385,A,4050.449,N,11154.912,W,038.9,182.2,090120,000.0,W*61
$GPGGA,231445.385,4050.438,N,11154.912,W,1,12,1.0,0.0,M,0.0,M,,*73
$GPGSA,A,3,01,02,03,04,05,06,07,08,09,10,11,12,1.0,1.0,1.0*30
$GPRMC,231445.385,A,4050.438,N,11154.912,W,038.9,182.2,090120,000.0,W*66
$GPGGA,231446.385,4050.428,N,11154.912,W,1,12,1.0,0.0,M,0.0,M,,*71
$GPGSA,A,3,01,02,03,04,05,06,07,08,09,10,11,12,1.0,1.0,1.0*30
$GPRMC,231446.385,A,4050.428,N,11154.912,W,038.9,182.2,090120,000.0,W*64
$GPGGA,231447.385,4050.417,N,11154.913,W,1,12,1.0,0.0,M,0.0,M,,*7D
$GPGSA,A,3,01,02,03,04,05,06,07,08,09,10,11,12,1.0,1.0,1.0*30
$GPRMC,231447.385,A,4050.417,N,11154.913,W,038.9,182.2,090120,000.0,W*68
$GPGGA,231448.385,4050.406,N,11154.913,W,1,12,1.0,0.0,M,0.0,M,,*72
$GPGSA,A,3,01,02,03,04,05,06,07,08,09,10,11,12,1.0,1.0,1.0*30
$GPRMC,231448.385,A,4050.406,N,11154.913,W,038.9,182.2,090120,000.0,W*67
$GPGGA,231449.385,4050.395,N,11154.914,W,1,12,1.0,0.0,M,0.0,M,,*79
$GPGSA,A,3,01,02,03,04,05,06,07,08,09,10,11,12,1.0,1.0,1.0*30
$GPRMC,231449.385,A,4050.395,N,11154.914,W,038.9,182.2,090120,000.0,W*6C
$GPGGA,231450.385,4050.384,N,11154.914,W,1,12,1.0,0.0,M,0.0,M,,*71
$GPGSA,A,3,01,02,03,04,05,06,07,08,09,10,11,12,1.0,1.0,1.0*30
$GPRMC,231450.385,A,4050.384,N,11154.914,W,038.9,182.7,090120,000.0,W*61
$GPGGA,231451.385,4050.374,N,11154.915,W,1,12,1.0,0.0,M,0.0,M,,*7E
$GPGSA,A,3,01,02,03,04,05,06,07,08,09,10,11,12,1.0,1.0,1.0*30
$GPRMC,231451.385,A,4050.374,N,11154.915,W,038.9,182.7,090120,000.0,W*6E
$GPGGA,231452.385,4050.363,N,11154.915,W,1,12,1.0,0.0,M,0.0,M,,*7B
$GPGSA,A,3,01,02,03,04,05,06,07,08,09,10,11,12,1.0,1.0,1.0*30
$GPRMC,231452.385,A,4050.363,N,11154.915,W,038.9,182.7,090120,000.0,W*6B
$GPGGA,231453.385,4050.352,N,11154.916,W,1,12,1.0,0.0,M,0.0,M,,*7B
$GPGSA,A,3,01,02,03,04,05,06,07,08,09,10,11,12,1.0,1.0,1.0*30
$GPRMC,231453.385,A,4050.352,N,11154.916,W,038.9,182.7,090120,000.0,W*6B
$GPGGA,231454.385,4050.341,N,11154.916,W,1,12,1.0,0.0,M,0.0,M,,*7E
$GPGSA,A,3,01,02,03,04,05,06,07,08,09,10,11,12,1.0,1.0,1.0*30
$GPRMC,231454.385,A,4050.341,N,11154.916,W,038.9,182.7,090120,000.0,W*6E
$GPGGA,231455.385,4050.330,N,11154.917,W,1,12,1.0,0.0,M,0.0,M,,*78
$GPGSA,A,3,01,02,03,04,05,06,07,08,09,10,11,12,1.0,1.0,1.0*30
$GPRMC,231455.385,A,4050.330,N,11154.917,W,038.9,182.7,090120,000.0,W*68
$GPGGA,231456.385,4050.320,N,11154.917,W,1,12,1.0,0.0,M,0.0,M,,*7A
$GPGSA,A,3,01,02,03,04,05,06,07,08,09,10,11,12,1.0,1.0,1.0*30
$GPRMC,231456.385,A,4050.320,N,11154.917,W,038.9,182.7,090120,000.0,W*6A
$GPGGA,231457.385,4050.309,N,11154.918,W,1,12,1.0,0.0,M,0.0,M,,*7F
$GPGSA,A,3,01,02,03,04,05,06,07,08,09,10,11,12,1.0,1.0,1.0*30
$GPRMC,231457.385,A,4050.309,N,11154.918,W,038.9,182.7,090120,000.0,W*6F
$GPGGA,231458.385,4050.298,N,11154.918,W,1,12,1.0,0.0,M,0.0,M,,*79
$GPGSA,A,3,01,02,03,04,05,06,07,08,09,10,11,12,1.0,1.0,1.0*30
$GPRMC,231458.385,A,4050.298,N,11154.918,W,038.9,182.7,090120,000.0,W*69
$GPGGA,231459.385,4050.287,N,11154.919,W,1,12,1.0,0.0,M,0.0,M,,*77
$GPGSA,A,3,01,02,03,04,05,06,07,08,09,10,11,12,1.0,1.0,1.0*30
$GPRMC,231459.385,A,4050.287,N,11154.919,W,038.9,182.7,090120,000.0,W*67
$GPGGA,231500.385,4050.277,N,11154.919,W,1,12,1.0,0.0,M,0.0,M,,*75
$GPGSA,A,3,01,02,03,04,05,06,07,08,09,10,11,12,1.0,1.0,1.0*30
$GPRMC,231500.385,A,4050.277,N,11154.919,W,038.9,182.7,090120,000.0,W*65
$GPGGA,231501.385,4050.266,N,11154.920,W,1,12,1.0,0.0,M,0.0,M,,*7E
$GPGSA,A,3,01,02,03,04,05,06,07,08,09,10,11,12,1.0,1.0,1.0*30
$GPRMC,231501.385,A,4050.266,N,11154.920,W,038.9,182.7,090120,000.0,W*6E
$GPGGA,231502.385,4050.255,N,11154.920,W,1,12,1.0,0.0,M,0.0,M,,*7D
$GPGSA,A,3,01,02,03,04,05,06,07,08,09,10,11,12,1.0,1.0,1.0*30
$GPRMC,231502.385,A,4050.255,N,11154.920,W,038.9,182.7,090120,000.0,W*6D
$GPGGA,231503.385,4050.244,N,11154.921,W,1,12,1.0,0.0,M,0.0,M,,*7D
$GPGSA,A,3,01,02,03,04,05,06,07,08,09,10,11,12,1.0,1.0,1.0*30
$GPRMC,231503.385,A,4050.244,N,11154.921,W,038.9,182.7,090120,000.0,W*6D
$GPGGA,231504.385,4050.233,N,11154.921,W,1,12,1.0,0.0,M,0.0,M,,*7A
$GPGSA,A,3,01,02,03,04,05,06,07,08,09,10,11,12,1.0,1.0,1.0*30
$GPRMC,231504.385,A,4050.233,N,11154.921,W,038.9,182.7,090120,000.0,W*6A
$GPGGA,231505.385,4050.223,N,11154.922,W,1,12,1.0,0.0,M,0.0,M,,*79
$GPGSA,A,3,01,02,03,04,05,06,07,08,09,10,11,12,1.0,1.0,1.0*30
$GPRMC,231505.385,A,4050.223,N,11154.922,W,038.9,182.7,090120,000.0,W*69
$GPGGA,231506.385,4050.212,N,11154.922,W,1,12,1.0,0.0,M,0.0,M,,*78
$GPGSA,A,3,01,02,03,04,05,06,07,08,09,10,11,12,1.0,1.0,1.0*30
$GPRMC,231506.385,A,4050.212,N,11154.922,W,038.9,182.7,090120,000.0,W*68
$GPGGA,231507.385,4050.201,N,11154.923,W,1,12,1.0,0.0,M,0.0,M,,*7A
$GPGSA,A,3,01,02,03,04,05,06,07,08,09,10,11,12,1.0,1.0,1.0*30
$GPRMC,231507.385,A,4050.201,N,11154.923,W,038.9,182.7,090120,000.0,W*6A
$GPGGA,231508.385,4050.190,N,11154.923,W,1,12,1.0,0.0,M,0.0,M,,*7E
$GPGSA,A,3,01,02,03,04,05,06,07,08,09,10,11,12,1.0,1.0,1.0*30
$GPRMC,231508.385,A,4050.190,N,11154.923,W,038.9,182.7,090120,000.0,W*6E
$GPGGA,231509.385,4050.180,N,11154.924,W,1,12,1.0,0.0,M,0.0,M,,*79
$GPGSA,A,3,01,02,03,04,05,06,07,08,09,10,11,12,1.0,1.0,1.0*30
$GPRMC,231509.385,A,4050.180,N,11154.924,W,038.9,182.7,090120,000.0,W*69
$GPGGA,231510.385,4050.169,N,11154.924,W,1,12,1.0,0.0,M,0.0,M,,*76
$GPGSA,A,3,01,02,03,04,05,06,07,08,09,10,11,12,1.0,1.0,1.0*30
$GPRMC,231510.385,A,4050.169,N,11154.924,W,038.9,182.7,090120,000.0,W*66
$GPGGA,231511.385,4050.158,N,11154.925,W,1,12,1.0,0.0,M,0.0,M,,*74
$GPGSA,A,3,01,02,03,04,05,06,07,08,09,10,11,12,1.0,1.0,1.0*30
$GPRMC,231511.385,A,4050.158,N,11154.925,W,038.9,182.7,090120,000.0,W*64
$GPGGA,231512.385,4050.147,N,11154.925,W,1,12,1.0,0.0,M,0.0,M,,*79
$GPGSA,A,3,01,02,03,04,05,06,07,08,09,10,11,12,1.0,1.0,1.0*30
$GPRMC,231512.385,A,4050.147,N,11154.925,W,038.9,182.7,090120,000.0,W*69
$GPGGA,231513.385,4050.136,N,11154.926,W,1,12,1.0,0.0,M,0.0,M,,*7D
$GPGSA,A,3,01,02,03,04,05,06,07,08,09,10,11,12,1.0,1.0,1.0*30
$GPRMC,231513.385,A,4050.136,N,11154.926,W,038.9,182.7,090120,000.0,W*6D
$GPGGA,231514.385,4050.126,N,11154.926,W,1,12,1.0,0.0,M,0.0,M,,*7B
$GPGSA,A,3,01,02,03,04,05,06,07,08,09,10,11,12,1.0,1.0,1.0*30
$GPRMC,231514.385,A,4050.126,N,11154.926,W,038.9,182.7,090120,000.0,W*6B
$GPGGA,231515.385,4050.115,N,11154.927,W,1,12,1.0,0.0,M,0.0,M,,*7B
$GPGSA,A,3,01,02,03,04,05,06,07,08,09,10,11,12,1.0,1.0,1.0*30
$GPRMC,231515.385,A,4050.115,N,11154.927,W,038.9,182.7,090120,000.0,W*6B
$GPGGA,231516.385,4050.104,N,11154.927,W,1,12,1.0,0.0,M,0.0,M,,*78
$GPGSA,A,3,01,02,03,04,05,06,07,08,09,10,11,12,1.0,1.0,1.0*30
$GPRMC,231516.385,A,4050.104,N,11154.927,W,038.9,182.7,090120,000.0,W*68
$GPGGA,231517.385,4050.093,N,11154.928,W,1,12,1.0,0.0,M,0.0,M,,*79
$GPGSA,A,3,01,02,03,04,05,06,07,08,09,10,11,12,1.0,1.0,1.0*30
$GPRMC,231517.385,A,4050.093,N,11154.928,W,038.9,182.7,090120,000.0,W*69
$GPGGA,231518.385,4050.082,N,11154.928,W,1,12,1.0,0.0,M,0.0,M,,*76
$GPGSA,A,3,01,02,03,04,05,06,07,08,09,10,11,12,1.0,1.0,1.0*30
$GPRMC,231518.385,A,4050.082,N,11154.928,W,038.9,182.7,090120,000.0,W*66
$GPGGA,231519.385,4050.072,N,11154.929,W,1,12,1.0,0.0,M,0.0,M,,*79
$GPGSA,A,3,01,02,03,04,05,06,07,08,09,10,11,12,1.0,1.0,1.0*30
$GPRMC,231519.385,A,4050.072,N,11154.929,W,038.9,182.7,090120,000.0,W*69
$GPGGA,231520.385,4050.061,N,11154.929,W,1,12,1.0,0.0,M,0.0,M,,*71
$GPGSA,A,3,01,02,03,04,05,06,07,08,09,10,11,12,1.0,1.0,1.0*30
$GPRMC,231520.385,A,4050.061,N,11154.929,W,038.9,182.7,090120,000.0,W*61
$GPGGA,231521.385,4050.050,N,11154.930,W,1,12,1.0,0.0,M,0.0,M,,*7A
$GPGSA,A,3,01,02,03,04,05,06,07,08,09,10,11,12,1.0,1.0,1.0*30
$GPRMC,231521.385,A,4050.050,N,11154.930,W,038.9,182.7,090120,000.0,W*6A
$GPGGA,231522.385,4050.039,N,11154.930,W,1,12,1.0,0.0,M,0.0,M,,*76
$GPGSA,A,3,01,02,03,04,05,06,07,08,09,10,11,12,1.0,1.0,1.0*30
$GPRMC,231522.385,A,4050.039,N,11154.930,W,038.9,182.7,090120,000.0,W*66
$GPGGA,231523.385,4050.029,N,11154.931,W,1,12,1.0,0.0,M,0.0,M,,*77
$GPGSA,A,3,01,02,03,04,05,06,07,08,09,10,11,12,1.0,1.0,1.0*30
$GPRMC,231523.385,A,4050.029,N,11154.931,W,038.9,182.7,090120,000.0,W*67
$GPGGA,231524.385,4050.018,N,11154.931,W,1,12,1.0,0.0,M,0.0,M,,*72
$GPGSA,A,3,01,02,03,04,05,06,07,08,09,10,11,12,1.0,1.0,1.0*30
$GPRMC,231524.385,A,4050.018,N,11154.931,W,038.9,182.7,090120,000.0,W*62
$GPGGA,231525.385,4050.007,N,11154.932,W,1,12,1.0,0.0,M,0.0,M,,*7E
$GPGSA,A,3,01,02,03,04,05,06,07,08,09,10,11,12,1.0,1.0,1.0*30
$GPRMC,231525.385,A,4050.007,N,11154.932,W,038.9,182.7,090120,000.0,W*6E
$GPGGA,231526.385,4049.996,N,11154.932,W,1,12,1.0,0.0,M,0.0,M,,*74
$GPGSA,A,3,01,02,03,04,05,06,07,08,09,10,11,12,1.0,1.0,1.0*30
$GPRMC,231526.385,A,4049.996,N,11154.932,W,038.9,182.7,090120,000.0,W*64
$GPGGA,231527.385,4049.985,N,11154.933,W,1,12,1.0,0.0,M,0.0,M,,*76
$GPGSA,A,3,01,02,03,04,05,06,07,08,09,10,11,12,1.0,1.0,1.0*30
$GPRMC,231527.385,A,4049.985,N,11154.933,W,038.9,182.7,090120,000.0,W*66
$GPGGA,231528.385,4049.975,N,11154.933,W,1,12,1.0,0.0,M,0.0,M,,*76
$GPGSA,A,3,01,02,03,04,05,06,07,08,09,10,11,12,1.0,1.0,1.0*30
$GPRMC,231528.385,A,4049.975,N,11154.933,W,038.9,182.7,090120,000.0,W*66
$GPGGA,231529.385,4049.964,N,11154.934,W,1,12,1.0,0.0,M,0.0,M,,*70
$GPGSA,A,3,01,02,03,04,05,06,07,08,09,10,11,12,1.0,1.0,1.0*30
$GPRMC,231529.385,A,4049.964,N,11154.934,W,038.9,182.7,090120,000.0,W*60
$GPGGA,231530.385,4049.953,N,11154.935,W,1,12,1.0,0.0,M,0.0,M,,*7D
$GPGSA,A,3,01,02,03,04,05,06,07,08,09,10,11,12,1.0,1.0,1.0*30
$GPRMC,231530.385,A,4049.953,N,11154.935,W,038.9,182.7,090120,000.0,W*6D
$GPGGA,231531.385,4049.942,N,11154.935,W,1,12,1.0,0.0,M,0.0,M,,*7C
$GPGSA,A,3,01,02,03,04,05,06,07,08,09,10,11,12,1.0,1.0,1.0*30
$GPRMC,231531.385,A,4049.942,N,11154.935,W,038.9,182.7,090120,000.0,W*6C
$GPGGA,231532.385,4049.931,N,11154.936,W,1,12,1.0,0.0,M,0.0,M,,*78
$GPGSA,A,3,01,02,03,04,05,06,07,08,09,10,11,12,1.0,1.0,1.0*30
$GPRMC,231532.385,A,4049.931,N,11154.936,W,038.9,182.7,090120,000.0,W*68
$GPGGA,231533.385,4049.921,N,11154.936,W,1,12,1.0,0.0,M,0.0,M,,*78
$GPGSA,A,3,01,02,03,04,05,06,07,08,09,10,11,12,1.0,1.0,1.0*30
$GPRMC,231533.385,A,4049.921,N,11154.936,W,038.9,182.7,090120,000.0,W*68
$GPGGA,231534.385,4049.910,N,11154.937,W,1,12,1.0,0.0,M,0.0,M,,*7C
$GPGSA,A,3,01,02,03,04,05,06,07,08,09,10,11,12,1.0,1.0,1.0*30
$GPRMC,231534.385,A,4049.910,N,11154.937,W,038.9,182.7,090120,000.0,W*6C
$GPGGA,231535.385,4049.899,N,11154.937,W,1,12,1.0,0.0,M,0.0,M,,*7D
$GPGSA,A,3,01,02,03,04,05,06,07,08,09,10,11,12,1.0,1.0,1.0*30
$GPRMC,231535.385,A,4049.899,N,11154.937,W,038.9,182.7,090120,000.0,W*6D
$GPGGA,231536.385,4049.888,N,11154.938,W,1,12,1.0,0.0,M,0.0,M,,*71
$GPGSA,A,3,01,02,03,04,05,06,07,08,09,10,11,12,1.0,1.0,1.0*30
$GPRMC,231536.385,A,4049.888,N,11154.938,W,038.9,182.7,090120,000.0,W*61
$GPGGA,231537.385,4049.878,N,11154.938,W,1,12,1.0,0.0,M,0.0,M,,*7F
$GPGSA,A,3,01,02,03,04,05,06,07,08,09,10,11,12,1.0,1.0,1.0*30
$GPRMC,231537.385,A,4049.878,N,11154.938,W,038.9,182.7,090120,000.0,W*6F
$GPGGA,231538.385,4049.867,N,11154.939,W,1,12,1.0,0.0,M,0.0,M,,*7F
$GPGSA,A,3,01,02,03,04,05,06,07,08,09,10,11,12,1.0,1.0,1.0*30
$GPRMC,231538.385,A,4049.867,N,11154.939,W,038.9,182.7,090120,000.0,W*6F
$GPGGA,231539.385,4049.856,N,11154.939,W,1,12,1.0,0.0,M,0.0,M,,*7C
$GPGSA,A,3,01,02,03,04,05,06,07,08,09,10,11,12,1.0,1.0,1.0*30
$GPRMC,231539.385,A,4049.856,N,11154.939,W,038.9,182.7,090120,000.0,W*6C
$GPGGA,231540.385,4049.845,N,11154.940,W,1,12,1.0,0.0,M,0.0,M,,*7E
$GPGSA,A,3,01,02,03,04,05,06,07,08,09,10,11,12,1.0,1.0,1.0*30
$GPRMC,231540.385,A,4049.845,N,11154.940,W,038.9,182.7,090120,000.0,W*6E
$GPGGA,231541.385,4049.834,N,11154.940,W,1,12,1.0,0.0,M,0.0,M,,*79
$GPGSA,A,3,01,02,03,04,05,06,07,08,09,10,11,12,1.0,1.0,1.0*30
$GPRMC,231541.385,A,4049.834,N,11154.940,W,038.9,182.7,090120,000.0,W*69
$GPGGA,231542.385,4049.824,N,11154.941,W,1,12,1.0,0.0,M,0.0,M,,*7A
$GPGSA,A,3,01,02,03,04,05,06,07,08,09,10,11,12,1.0,1.0,1.0*30
$GPRMC,231542.385,A,4049.824,N,11154.941,W,038.9,182.7,090120,000.0,W*6A
$GPGGA,231543.385,4049.813,N,11154.941,W,1,12,1.0,0.0,M,0.0,M,,*7F
$GPGSA,A,3,01,02,03,04,05,06,07,08,09,10,11,12,1.0,1.0,1.0*30
$GPRMC,231543.385,A,4049.813,N,11154.941,W,038.9,182.7,090120,000.0,W*6F
$GPGGA,231544.385,4049.802,N,11154.942,W,1,12,1.0,0.0,M,0.0,M,,*7B
$GPGSA,A,3,01,02,03,04,05,06,07,08,09,10,11,12,1.0,1.0,1.0*30
$GPRMC,231544.385,A,4049.802,N,11154.942,W,038.9,182.7,090120,000.0,W*6B
$GPGGA,231545.385,4049.791,N,11154.942,W,1,12,1.0,0.0,M,0.0,M,,*7F
$GPGSA,A,3,01,02,03,04,05,06,07,08,09,10,11,12,1.0,1.0,1.0*30
$GPRMC,231545.385,A,4049.791,N,11154.942,W,038.9,182.7,090120,000.0,W*6F
$GPGGA,231546.385,4049.780,N,11154.943,W,1,12,1.0,0.0,M,0.0,M,,*7D
$GPGSA,A,3,01,02,03,04,05,06,07,08,09,10,11,12,1.0,1.0,1.0*30
$GPRMC,231546.385,A,4049.780,N,11154.943,W,038.9,182.7,090120,000.0,W*6D
$GPGGA,231547.385,4049.770,N,11154.943,W,1,12,1.0,0.0,M,0.0,M,,*73
$GPGSA,A,3,01,02,03,04,05,06,07,08,09,10,11,12,1.0,1.0,1.0*30
$GPRMC,231547.385,A,4049.770,N,11154.943,W,038.9,182.7,090120,000.0,W*63
$GPGGA,231548.385,4049.759,N,11154.944,W,1,12,1.0,0.0,M,0.0,M,,*70
$GPGSA,A,3,01,02,03,04,05,06,07,08,09,10,11,12,1.0,1.0,1.0*30
$GPRMC,231548.385,A,4049.759,N,11154.944,W,038.9,183.3,090120,000.0,W*65
$GPGGA,231549.385,4049.748,N,11154.944,W,1,12,1.0,0.0,M,0.0,M,,*71
$GPGSA,A,3,01,02,03,04,05,06,07,08,09,10,11,12,1.0,1.0,1.0*30
$GPRMC,231549.385,A,4049.748,N,11154.944,W,038.9,183.3,090120,000.0,W*64
$GPGGA,231550.385,4049.737,N,11154.945,W,1,12,1.0,0.0,M,0.0,M,,*70
$GPGSA,A,3,01,02,03,04,05,06,07,08,09,10,11,12,1.0,1.0,1.0*30
$GPRMC,231550.385,A,4049.737,N,11154.945,W,038.9,183.3,090120,000.0,W*65
$GPGGA,231551.385,4049.727,N,11154.946,W,1,12,1.0,0.0,M,0.0,M,,*73
$GPGSA,A,3,01,02,03,04,05,06,07,08,09,10,11,12,1.0,1.0,1.0*30
$GPRMC,231551.385,A,4049.727,N,11154.946,W,038.9,183.3,090120,000.0,W*66
$GPGGA,231552.385,4049.716,N,11154.946,W,1,12,1.0,0.0,M,0.0,M,,*72
$GPGSA,A,3,01,02,03,04,05,06,07,08,09,10,11,12,1.0,1.0,1.0*30
$GPRMC,231552.385,A,4049.716,N,11154.946,W,038.9,183.3,090120,000.0,W*67
$GPGGA,231553.385,4049.705,N,11154.947,W,1,12,1.0,0.0,M,0.0,M,,*70
$GPGSA,A,3,01,02,03,04,05,06,07,08,09,10,11,12,1.0,1.0,1.0*30
$GPRMC,231553.385,A,4049.705,N,11154.947,W,038.9,183.3,090120,000.0,W*65
$GPGGA,231554.385,4049.694,N,11154.947,W,1,12,1.0,0.0,M,0.0,M,,*7E
$GPGSA,A,3,01,02,03,04,05,06,07,08,09,10,11,12,1.0,1.0,1.0*30
$GPRMC,231554.385,A,4049.694,N,11154.947,W,038.9,183.3,090120,000.0,W*6B
$GPGGA,231555.385,4049.683,N,11154.948,W,1,12,1.0,0.0,M,0.0,M,,*76
$GPGSA,A,3,01,02,03,04,05,06,07,08,09,10,11,12,1.0,1.0,1.0*30
$GPRMC,231555.385,A,4049.683,N,11154.948,W,038.9,183.3,090120,000.0,W*63
$GPGGA,231556.385,4049.673,N,11154.949,W,1,12,1.0,0.0,M,0.0,M,,*7B
$GPGSA,A,3,01,02,03,04,05,06,07,08,09,10,11,12,1.0,1.0,1.0*30
$GPRMC,231556.385,A,4049.673,N,11154.949,W,038.9,183.3,090120,000.0,W*6E
$GPGGA,231557.385,4049.662,N,11154.949,W,1,12,1.0,0.0,M,0.0,M,,*7A
$GPGSA,A,3,01,02,03,04,05,06,07,08,09,10,11,12,1.0,1.0,1.0*30
$GPRMC,231557.385,A,4049.662,N,11154.949,W,038.9,183.3,090120,000.0,W*6F
$GPGGA,231558.385,4049.651,N,11154.950,W,1,12,1.0,0.0,M,0.0,M,,*7D
$GPGSA,A,3,01,02,03,04,05,06,07,08,09,10,11,12,1.0,1.0,1.0*30
$GPRMC,231558.385,A,4049.651,N,11154.950,W,038.9,183.3,090120,000.0,W*68
$GPGGA,231559.385,4049.640,N,11154.951,W,1,12,1.0,0.0,M,0.0,M,,*7D
$GPGSA,A,3,01,02,03,04,05,06,07,08,09,10,11,12,1.0,1.0,1.0*30
$GPRMC,231559.385,A,4049.640,N,11154.951,W,038.9,183.3,090120,000.0,W*68
$GPGGA,231600.385,4049.630,N,11154.951,W,1,12,1.0,0.0,M,0.0,M,,*75
$GPGSA,A,3,01,02,03,04,05,06,07,08,09,10,11,12,1.0,1.0,1.0*30
$GPRMC,231600.385,A,4049.630,N,11154.951,W,038.9,183.3,090120,000.0,W*60
$GPGGA,231601.385,4049.619,N,11154.952,W,1,12,1.0,0.0,M,0.0,M,,*7C
$GPGSA,A,3,01,02,03,04,05,06,07,08,09,10,11,12,1.0,1.0,1.0*30
$GPRMC,231601.385,A,4049.619,N,11154.952,W,038.9,183.3,090120,000.0,W*69
$GPGGA,231602.385,4049.608,N,11154.952,W,1,12,1.0,0.0,M,0.0,M,,*7F
$GPGSA,A,3,01,02,03,04,05,06,07,08,09,10,11,12,1.0,1.0,1.0*30
$GPRMC,231602.385,A,4049.608,N,11154.952,W,038.9,183.3,090120,000.0,W*6A
$GPGGA,231603.385,4049.597,N,11154.953,W,1,12,1.0,0.0,M,0.0,M,,*7A
$GPGSA,A,3,01,02,03,04,05,06,07,08,09,10,11,12,1.0,1.0,1.0*30
$GPRMC,231603.385,A,4049.597,N,11154.953,W,038.9,183.3,090120,000.0,W*6F
$GPGGA,231604.385,4049.586,N,11154.954,W,1,12,1.0,0.0,M,0.0,M,,*7A
$GPGSA,A,3,01,02,03,04,05,06,07,08,09,10,11,12,1.0,1.0,1.0*30
$GPRMC,231604.385,A,4049.586,N,11154.954,W,038.9,183.3,090120,000.0,W*6F
$GPGGA,231605.385,4049.576,N,11154.954,W,1,12,1.0,0.0,M,0.0,M,,*74
$GPGSA,A,3,01,02,03,04,05,06,07,08,09,10,11,12,1.0,1.0,1.0*30
$GPRMC,231605.385,A,4049.576,N,11154.954,W,038.9,183.3,090120,000.0,W*61
$GPGGA,231606.385,4049.565,N,11154.955,W,1,12,1.0,0.0,M,0.0,M,,*74
$GPGSA,A,3,01,02,03,04,05,06,07,08,09,10,11,12,1.0,1.0,1.0*30
$GPRMC,231606.385,A,4049.565,N,11154.955,W,038.9,183.3,090120,000.0,W*61
$GPGGA,231607.385,4049.554,N,11154.955,W,1,12,1.0,0.0,M,0.0,M,,*77
$GPGSA,A,3,01,02,03,04,05,06,07,08,09,10,11,12,1.0,1.0,1.0*30
$GPRMC,231607.385,A,4049.554,N,11154.955,W,038.9,183.3,090120,000.0,W*62
$GPGGA,231608.385,4049.543,N,11154.956,W,1,12,1.0,0.0,M,0.0,M,,*7D
$GPGSA,A,3,01,02,03,04,05,06,07,08,09,10,11,12,1.0,1.0,1.0*30
$GPRMC,231608.385,A,4049.543,N,11154.956,W,038.9,183.3,090120,000.0,W*68
$GPGGA,231609.385,4049.532,N,11154.957,W,1,12,1.0,0.0,M,0.0,M,,*7B
$GPGSA,A,3,01,02,03,04,05,06,07,08,09,10,11,12,1.0,1.0,1.0*30
$GPRMC,231609.385,A,4049.532,N,11154.957,W,038.9,183.3,090120,000.0,W*6E
$GPGGA,231610.385,4049.522,N,11154.957,W,1,12,1.0,0.0,M,0.0,M,,*72
$GPGSA,A,3,01,02,03,04,05,06,07,08,09,10,11,12,1.0,1.0,1.0*30
$GPRMC,231610.385,A,4049.522,N,11154.957,W,038.9,183.3,090120,000.0,W*67
$GPGGA,231611.385,4049.511,N,11154.958,W,1,12,1.0,0.0,M,0.0,M,,*7C
$GPGSA,A,3,01,02,03,04,05,06,07,08,09,10,11,12,1.0,1.0,1.0*30
$GPRMC,231611.385,A,4049.511,N,11154.958,W,038.9,183.3,090120,000.0,W*69
$GPGGA,231612.385,4049.500,N,11154.959,W,1,12,1.0,0.0,M,0.0,M,,*7E
$GPGSA,A,3,01,02,03,04,05,06,07,08,09,10,11,12,1.0,1.0,1.0*30
$GPRMC,231612.385,A,4049.500,N,11154.959,W,038.9,183.3,090120,000.0,W*6B
$GPGGA,231613.385,4049.489,N,11154.959,W,1,12,1.0,0.0,M,0.0,M,,*7F
$GPGSA,A,3,01,02,03,04,05,06,07,08,09,10,11,12,1.0,1.0,1.0*30
$GPRMC,231613.385,A,4049.489,N,11154.959,W,038.9,183.3,090120,000.0,W*6A
$GPGGA,231614.385,4049.479,N,11154.960,W,1,12,1.0,0.0,M,0.0,M,,*7D
$GPGSA,A,3,01,02,03,04,05,06,07,08,09,10,11,12,1.0,1.0,1.0*30
$GPRMC,231614.385,A,4049.479,N,11154.960,W,038.9,183.3,090120,000.0,W*68
$GPGGA,231615.385,4049.468,N,11154.960,W,1,12,1.0,0.0,M,0.0,M,,*7C
$GPGSA,A,3,01,02,03,04,05,06,07,08,09,10,11,12,1.0,1.0,1.0*30
$GPRMC,231615.385,A,4049.468,N,11154.960,W,038.9,183.3,090120,000.0,W*69
$GPGGA,231616.385,4049.457,N,11154.961,W,1,12,1.0,0.0,M,0.0,M,,*72
$GPGSA,A,3,01,02,03,04,05,06,07,08,09,10,11,12,1.0,1.0,1.0*30
$GPRMC,231616.385,A,4049.457,N,11154.961,W,038.9,183.3,090120,000.0,W*67
$GPGGA,231617.385,4049.446,N,11154.962,W,1,12,1.0,0.0,M,0.0,M,,*70
$GPGSA,A,3,01,02,03,04,05,06,07,08,09,10,11,12,1.0,1.0,1.0*30
$GPRMC,231617.385,A,4049.446,N,11154.962,W,038.9,183.3,090120,000.0,W*65
$GPGGA,231618.385,4049.435,N,11154.962,W,1,12,1.0,0.0,M,0.0,M,,*7B
$GPGSA,A,3,01,02,03,04,05,06,07,08,09,10,11,12,1.0,1.0,1.0*30
$GPRMC,231618.385,A,4049.435,N,11154.962,W,038.9,183.3,090120,000.0,W*6E
$GPGGA,231619.385,4049.425,N,11154.963,W,1,12,1.0,0.0,M,0.0,M,,*7A
$GPGSA,A,3,01,02,03,04,05,06,07,08,09,10,11,12,1.0,1.0,1.0*30
$GPRMC,231619.385,A,4049.425,N,11154.963,W,038.9,183.3,090120,000.0,W*6F
$GPGGA,231620.385,4049.414,N,11154.963,W,1,12,1.0,0.0,M,0.0,M,,*72
$GPGSA,A,3,01,02,03,04,05,06,07,08,09,10,11,12,1.0,1.0,1.0*30
$GPRMC,231620.385,A,4049.414,N,11154.963,W,038.9,183.3,090120,000.0,W*67
$GPGGA,231621.385,4049.403,N,11154.964,W,1,12,1.0,0.0,M,0.0,M,,*72
$GPGSA,A,3,01,02,03,04,05,06,07,08,09,10,11,12,1.0,1.0,1.0*30
$GPRMC,231621.385,A,4049.403,N,11154.964,W,038.9,183.3,090120,000.0,W*67
$GPGGA,231622.385,4049.392,N,11154.965,W,1,12,1.0,0.0,M,0.0,M,,*7F
$GPGSA,A,3,01,02,03,04,05,06,07,08,09,10,11,12,1.0,1.0,1.0*30
$GPRMC,231622.385,A,4049.392,N,11154.965,W,038.9,183.3,090120,000.0,W*6A
$GPGGA,231623.385,4049.382,N,11154.965,W,1,12,1.0,0.0,M,0.0,M,,*7F
$GPGSA,A,3,01,02,03,04,05,06,07,08,09,10,11,12,1.0,1.0,1.0*30
$GPRMC,231623.385,A,4049.382,N,11154.965,W,038.9,183.3,090120,000.0,W*6A
$GPGGA,231624.385,4049.371,N,11154.966,W,1,12,1.0,0.0,M,0.0,M,,*77
$GPGSA,A,3,01,02,03,04,05,06,07,08,09,10,11,12,1.0,1.0,1.0*30
$GPRMC,231624.385,A,4049.371,N,11154.966,W,038.9,183.3,090120,000.0,W*62
$GPGGA,231625.385,4049.360,N,11154.967,W,1,12,1.0,0.0,M,0.0,M,,*77
$GPGSA,A,3,01,02,03,04,05,06,07,08,09,10,11,12,1.0,1.0,1.0*30
$GPRMC,231625.385,A,4049.360,N,11154.967,W,038.9,183.3,090120,000.0,W*62
$GPGGA,231626.385,4049.349,N,11154.967,W,1,12,1.0,0.0,M,0.0,M,,*7F
$GPGSA,A,3,01,02,03,04,05,06,07,08,09,10,11,12,1.0,1.0,1.0*30
$GPRMC,231626.385,A,4049.349,N,11154.967,W,038.9,183.3,090120,000.0,W*6A
$GPGGA,231627.385,4049.338,N,11154.968,W,1,12,1.0,0.0,M,0.0,M,,*77
$GPGSA,A,3,01,02,03,04,05,06,07,08,09,10,11,12,1.0,1.0,1.0*30
$GPRMC,231627.385,A,4049.338,N,11154.968,W,038.9,183.3,090120,000.0,W*62
$GPGGA,231628.385,4049.328,N,11154.968,W,1,12,1.0,0.0,M,0.0,M,,*79
$GPGSA,A,3,01,02,03,04,05,06,07,08,09,10,11,12,1.0,1.0,1.0*30
$GPRMC,231628.385,A,4049.328,N,11154.968,W,038.9,183.3,090120,000.0,W*6C
$GPGGA,231629.385,4049.317,N,11154.969,W,1,12,1.0,0.0,M,0.0,M,,*75
$GPGSA,A,3,01,02,03,04,05,06,07,08,09,10,11,12,1.0,1.0,1.0*30
$GPRMC,231629.385,A,4049.317,N,11154.969,W,038.9,183.3,090120,000.0,W*60
$GPGGA,231630.385,4049.306,N,11154.970,W,1,12,1.0,0.0,M,0.0,M,,*75
$GPGSA,A,3,01,02,03,04,05,06,07,08,09,10,11,12,1.0,1.0,1.0*30
$GPRMC,231630.385,A,4049.306,N,11154.970,W,038.9,183.3,090120,000.0,W*60
$GPGGA,231631.385,4049.295,N,11154.970,W,1,12,1.0,0.0,M,0.0,M,,*7F
$GPGSA,A,3,01,02,03,04,05,06,07,08,09,10,11,12,1.0,1.0,1.0*30
$GPRMC,231631.385,A,4049.295,N,11154.970,W,038.9,183.3,090120,000.0,W*6A
$GPGGA,231632.385,4049.284,N,11154.971,W,1,12,1.0,0.0,M,0.0,M,,*7D
$GPGSA,A,3,01,02,03,04,05,06,07,08,09,10,11,12,1.0,1.0,1.0*30
$GPRMC,231632.385,A,4049.284,N,11154.971,W,038.9,183.3,090120,000.0,W*68
$GPGGA,231633.385,4049.274,N,11154.972,W,1,12,1.0,0.0,M,0.0,M,,*70
$GPGSA,A,3,01,02,03,04,05,06,07,08,09,10,11,12,1.0,1.0,1.0*30
$GPRMC,231633.385,A,4049.274,N,11154.972,W,038.9,193.7,090120,000.0,W*60
$GPGGA,231634.385,4049.263,N,11154.974,W,1,12,1.0,0.0,M,0.0,M,,*77
$GPGSA,A,3,01,02,03,04,05,06,07,08,09,10,11,12,1.0,1.0,1.0*30
$GPRMC,231634.385,A,4049.263,N,11154.974,W,038.9,193.7,090120,000.0,W*67
$GPGGA,231635.385,4049.252,N,11154.977,W,1,12,1.0,0.0,M,0.0,M,,*77
$GPGSA,A,3,01,02,03,04,05,06,07,08,09,10,11,12,1.0,1.0,1.0*30
$GPRMC,231635.385,A,4049.252,N,11154.977,W,038.9,193.7,090120,000.0,W*67
$GPGGA,231636.385,4049.242,N,11154.979,W,1,12,1.0,0.0,M,0.0,M,,*7B
$GPGSA,A,3,01,02,03,04,05,06,07,08,09,10,11,12,1.0,1.0,1.0*30
$GPRMC,231636.385,A,4049.242,N,11154.979,W,038.9,193.7,090120,000.0,W*6B
$GPGGA,231637.385,4049.231,N,11154.982,W,1,12,1.0,0.0,M,0.0,M,,*7A
$GPGSA,A,3,01,02,03,04,05,06,07,08,09,10,11,12,1.0,1.0,1.0*30
$GPRMC,231637.385,A,4049.231,N,11154.982,W,038.9,193.7,090120,000.0,W*6A
$GPGGA,231638.385,4049.221,N,11154.985,W,1,12,1.0,0.0,M,0.0,M,,*73
$GPGSA,A,3,01,02,03,04,05,06,07,08,09,10,11,12,1.0,1.0,1.0*30
$GPRMC,231638.385,A,4049.221,N,11154.985,W,038.9,193.7,090120,000.0,W*63
$GPGGA,231639.385,4049.210,N,11154.987,W,1,12,1.0,0.0,M,0.0,M,,*72
$GPGSA,A,3,01,02,03,04,05,06,07,08,09,10,11,12,1.0,1.0,1.0*30
$GPRMC,231639.385,A,4049.210,N,11154.987,W,038.9,193.7,090120,000.0,W*62
$GPGGA,231640.385,4049.199,N,11154.990,W,1,12,1.0,0.0,M,0.0,M,,*78
$GPGSA,A,3,01,02,03,04,05,06,07,08,09,10,11,12,1.0,1.0,1.0*30
$GPRMC,231640.385,A,4049.199,N,11154.990,W,038.9,206.3,090120,000.0,W*63
$GPGGA,231641.385,4049.189,N,11154.995,W,1,12,1.0,0.0,M,0.0,M,,*7D
$GPGSA,A,3,01,02,03,04,05,06,07,08,09,10,11,12,1.0,1.0,1.0*30
$GPRMC,231641.385,A,4049.189,N,11154.995,W,038.9,206.3,090120,000.0,W*66
$GPGGA,231642.385,4049.179,N,11155.000,W,1,12,1.0,0.0,M,0.0,M,,*75
$GPGSA,A,3,01,02,03,04,05,06,07,08,09,10,11,12,1.0,1.0,1.0*30
$GPRMC,231642.385,A,4049.179,N,11155.000,W,038.9,206.3,090120,000.0,W*6E
$GPGGA,231643.385,4049.169,N,11155.005,W,1,12,1.0,0.0,M,0.0,M,,*70
$GPGSA,A,3,01,02,03,04,05,06,07,08,09,10,11,12,1.0,1.0,1.0*30
$GPRMC,231643.385,A,4049.169,N,11155.005,W,038.9,206.3,090120,000.0,W*6B
$GPGGA,231644.385,4049.159,N,11155.010,W,1,12,1.0,0.0,M,0.0,M,,*70
$GPGSA,A,3,01,02,03,04,05,06,07,08,09,10,11,12,1.0,1.0,1.0*30
$GPRMC,231644.385,A,4049.159,N,11155.010,W,038.9,206.3,090120,000.0,W*6B
$GPGGA,231645.385,4049.149,N,11155.015,W,1,12,1.0,0.0,M,0.0,M,,*75
$GPGSA,A,3,01,02,03,04,05,06,07,08,09,10,11,12,1.0,1.0,1.0*30
$GPRMC,231645.385,A,4049.149,N,11155.015,W,038.9,206.3,090120,000.0,W*6E
$GPGGA,231646.385,4049.139,N,11155.020,W,1,12,1.0,0.0,M,0.0,M,,*77
$GPGSA,A,3,01,02,03,04,05,06,07,08,09,10,11,12,1.0,1.0,1.0*30
$GPRMC,231646.385,A,4049.139,N,11155.020,W,038.9,206.3,090120,000.0,W*6C
$GPGGA,231647.385,4049.129,N,11155.025,W,1,12,1.0,0.0,M,0.0,M,,*72
$GPGSA,A,3,01,02,03,04,05,06,07,08,09,10,11,12,1.0,1.0,1.0*30
$GPRMC,231647.385,A,4049.129,N,11155.025,W,038.9,206.3,090120,000.0,W*69
$GPGGA,231648.385,4049.119,N,11155.030,W,1,12,1.0,0.0,M,0.0,M,,*7A
$GPGSA,A,3,01,02,03,04,05,06,07,08,09,10,11,12,1.0,1.0,1.0*30
$GPRMC,231648.385,A,4049.119,N,11155.030,W,038.9,206.3,090120,000.0,W*61
$GPGGA,231649.385,4049.109,N,11155.035,W,1,12,1.0,0.0,M,0.0,M,,*7F
$GPGSA,A,3,01,02,03,04,05,06,07,08,09,10,11,12,1.0,1.0,1.0*30
$GPRMC,231649.385,A,4049.109,N,11155.035,W,038.9,206.3,090120,000.0,W*64
$GPGGA,231650.385,4049.098,N,11155.040,W,1,12,1.0,0.0,M,0.0,M,,*7C
$GPGSA,A,3,01,02,03,04,05,06,07,08,09,10,11,12,1.0,1.0,1.0*30
$GPRMC,231650.385,A,4049.098,N,11155.040,W,038.9,228.7,090120,000.0,W*6F
$GPGGA,231651.385,4049.090,N,11155.049,W,1,12,1.0,0.0,M,0.0,M,,*7C
$GPGSA,A,3,01,02,03,04,05,06,07,08,09,10,11,12,1.0,1.0,1.0*30
$GPRMC,231651.385,A,4049.090,N,11155.049,W,038.9,228.7,090120,000.0,W*6F
$GPGGA,231652.385,4049.082,N,11155.058,W,1,12,1.0,0.0,M,0.0,M,,*7C
$GPGSA,A,3,01,02,03,04,05,06,07,08,09,10,11,12,1.0,1.0,1.0*30
$GPRMC,231652.385,A,4049.082,N,11155.058,W,038.9,228.7,090120,000.0,W*6F
$GPGGA,231653.385,4049.074,N,11155.068,W,1,12,1.0,0.0,M,0.0,M,,*77
$GPGSA,A,3,01,02,03,04,05,06,07,08,09,10,11,12,1.0,1.0,1.0*30
$GPRMC,231653.385,A,4049.074,N,11155.068,W,038.9,228.7,090120,000.0,W*64
$GPGGA,231654.385,4049.066,N,11155.077,W,1,12,1.0,0.0,M,0.0,M,,*7D
$GPGSA,A,3,01,02,03,04,05,06,07,08,09,10,11,12,1.0,1.0,1.0*30
$GPRMC,231654.385,A,4049.066,N,11155.077,W,038.9,228.7,090120,000.0,W*6E
$GPGGA,231655.385,4049.058,N,11155.086,W,1,12,1.0,0.0,M,0.0,M,,*7F
$GPGSA,A,3,01,02,03,04,05,06,07,08,09,10,11,12,1.0,1.0,1.0*30
$GPRMC,231655.385,A,4049.058,N,11155.086,W,038.9,228.7,090120,000.0,W*6C
$GPGGA,231656.385,4049.049,N,11155.096,W,1,12,1.0,0.0,M,0.0,M,,*7D
$GPGSA,A,3,01,02,03,04,05,06,07,08,09,10,11,12,1.0,1.0,1.0*30
$GPRMC,231656.385,A,4049.049,N,11155.096,W,038.9,228.7,090120,000.0,W*6E
$GPGGA,231657.385,4049.041,N,11155.105,W,1,12,1.0,0.0,M,0.0,M,,*7F
$GPGSA,A,3,01,02,03,04,05,06,07,08,09,10,11,12,1.0,1.0,1.0*30
$GPRMC,231657.385,A,4049.041,N,11155.105,W,038.9,228.7,090120,000.0,W*6C
$GPGGA,231658.385,4049.033,N,11155.114,W,1,12,1.0,0.0,M,0.0,M,,*75
$GPGSA,A,3,01,02,03,04,05,06,07,08,09,10,11,12,1.0,1.0,1.0*30
$GPRMC,231658.385,A,4049.033,N,11155.114,W,038.9,228.7,090120,000.0,W*66
$GPGGA,231659.385,4049.025,N,11155.124,W,1,12,1.0,0.0,M,0.0,M,,*70
$GPGSA,A,3,01,02,03,04,05,06,07,08,09,10,11,12,1.0,1.0,1.0*30
$GPRMC,231659.385,A,4049.025,N,11155.124,W,038.9,228.7,090120,000.0,W*63
$GPGGA,231700.385,4049.017,N,11155.133,W,1,12,1.0,0.0,M,0.0,M,,*7A
$GPGSA,A,3,01,02,03,04,05,06,07,08,09,10,11,12,1.0,1.0,1.0*30
$GPRMC,231700.385,A,4049.017,N,11155.133,W,038.9,228.7,090120,000.0,W*69
$GPGGA,231701.385,4049.009,N,11155.142,W,1,12,1.0,0.0,M,0.0,M,,*72
$GPGSA,A,3,01,02,03,04,05,06,07,08,09,10,11,12,1.0,1.0,1.0*30
$GPRMC,231701.385,A,4049.009,N,11155.142,W,038.9,228.7,090120,000.0,W*61
$GPGGA,231702.385,4049.000,N,11155.152,W,1,12,1.0,0.0,M,0.0,M,,*79
$GPGSA,A,3,01,02,03,04,05,06,07,08,09,10,11,12,1.0,1.0,1.0*30
$GPRMC,231702.385,A,4049.000,N,11155.152,W,038.9,228.7,090120,000.0,W*6A
$GPGGA,231703.385,4048.992,N,11155.161,W,1,12,1.0,0.0,M,0.0,M,,*7B
$GPGSA,A,3,01,02,03,04,05,06,07,08,09,10,11,12,1.0,1.0,1.0*30
$GPRMC,231703.385,A,4048.992,N,11155.161,W,038.9,228.7,090120,000.0,W*68
$GPGGA,231704.385,4048.984,N,11155.170,W,1,12,1.0,0.0,M,0.0,M,,*7B
$GPGSA,A,3,01,02,03,04,05,06,07,08,09,10,11,12,1.0,1.0,1.0*30
$GPRMC,231704.385,A,4048.984,N,11155.170,W,038.9,231.2,090120,000.0,W*65
$GPGGA,231705.385,4048.976,N,11155.180,W,1,12,1.0,0.0,M,0.0,M,,*78
$GPGSA,A,3,01,02,03,04,05,06,07,08,09,10,11,12,1.0,1.0,1.0*30
$GPRMC,231705.385,A,4048.976,N,11155.180,W,038.9,231.2,090120,000.0,W*66
$GPGGA,231706.385,4048.968,N,11155.190,W,1,12,1.0,0.0,M,0.0,M,,*75
$GPGSA,A,3,01,02,03,04,05,06,07,08,09,10,11,12,1.0,1.0,1.0*30
$GPRMC,231706.385,A,4048.968,N,11155.190,W,038.9,231.2,090120,000.0,W*6B
$GPGGA,231707.385,4048.960,N,11155.200,W,1,12,1.0,0.0,M,0.0,M,,*76
$GPGSA,A,3,01,02,03,04,05,06,07,08,09,10,11,12,1.0,1.0,1.0*30
$GPRMC,231707.385,A,4048.960,N,11155.200,W,038.9,231.2,090120,000.0,W*68
$GPGGA,231708.385,4048.953,N,11155.209,W,1,12,1.0,0.0,M,0.0,M,,*70
$GPGSA,A,3,01,02,03,04,05,06,07,08,09,10,11,12,1.0,1.0,1.0*30
$GPRMC,231708.385,A,4048.953,N,11155.209,W,038.9,231.2,090120,000.0,W*6E
$GPGGA,231709.385,4048.945,N,11155.219,W,1,12,1.0,0.0,M,0.0,M,,*77
$GPGSA,A,3,01,02,03,04,05,06,07,08,09,10,11,12,1.0,1.0,1.0*30
$GPRMC,231709.385,A,4048.945,N,11155.219,W,038.9,231.2,090120,000.0,W*69
$GPGGA,231710.385,4048.937,N,11155.229,W,1,12,1.0,0.0,M,0.0,M,,*79
$GPGSA,A,3,01,02,03,04,05,06,07,08,09,10,11,12,1.0,1.0,1.0*30
$GPRMC,231710.385,A,4048.937,N,11155.229,W,038.9,231.2,090120,000.0,W*67
$GPGGA,231711.385,4048.929,N,11155.239,W,1,12,1.0,0.0,M,0.0,M,,*76
$GPGSA,A,3,01,02,03,04,05,06,07,08,09,10,11,12,1.0,1.0,1.0*30
$GPRMC,231711.385,A,4048.929,N,11155.239,W,038.9,231.2,090120,000.0,W*68
$GPGGA,231712.385,4048.921,N,11155.249,W,1,12,1.0,0.0,M,0.0,M,,*7A
$GPGSA,A,3,01,02,03,04,05,06,07,08,09,10,11,12,1.0,1.0,1.0*30
$GPRMC,231712.385,A,4048.921,N,11155.249,W,038.9,231.2,090120,000.0,W*64
$GPGGA,231713.385,4048.913,N,11155.258,W,1,12,1.0,0.0,M,0.0,M,,*7A
$GPGSA,A,3,01,02,03,04,05,06,07,08,09,10,11,12,1.0,1.0,1.0*30
$GPRMC,231713.385,A,4048.913,N,11155.258,W,038.9,231.2,090120,000.0,W*64
$GPGGA,231714.385,4048.906,N,11155.268,W,1,12,1.0,0.0,M,0.0,M,,*7A
$GPGSA,A,3,01,02,03,04,05,06,07,08,09,10,11,12,1.0,1.0,1.0*30
$GPRMC,231714.385,A,4048.906,N,11155.268,W,038.9,231.2,090120,000.0,W*64
$GPGGA,231715.385,4048.898,N,11155.278,W,1,12,1.0,0.0,M,0.0,M,,*7C
$GPGSA,A,3,01,02,03,04,05,06,07,08,09,10,11,12,1.0,1.0,1.0*30
$GPRMC,231715.385,A,4048.898,N,11155.278,W,038.9,231.2,090120,000.0,W*62
$GPGGA,231716.385,4048.890,N,11155.288,W,1,12,1.0,0.0,M,0.0,M,,*78
$GPGSA,A,3,01,02,03,04,05,06,07,08,09,10,11,12,1.0,1.0,1.0*30
$GPRMC,231716.385,A,4048.890,N,11155.288,W,038.9,231.2,090120,000.0,W*66
$GPGGA,231717.385,4048.882,N,11155.298,W,1,12,1.0,0.0,M,0.0,M,,*7B
$GPGSA,A,3,01,02,03,04,05,06,07,08,09,10,11,12,1.0,1.0,1.0*30
$GPRMC,231717.385,A,4048.882,N,11155.298,W,038.9,231.2,090120,000.0,W*65
$GPGGA,231718.385,4048.874,N,11155.307,W,1,12,1.0,0.0,M,0.0,M,,*7A
$GPGSA,A,3,01,02,03,04,05,06,07,08,09,10,11,12,1.0,1.0,1.0*30
$GPRMC,231718.385,A,4048.874,N,11155.307,W,038.9,216.1,090120,000.0,W*62
$GPGGA,231719.385,4048.865,N,11155.314,W,1,12,1.0,0.0,M,0.0,M,,*79
$GPGSA,A,3,01,02,03,04,05,06,07,08,09,10,11,12,1.0,1.0,1.0*30
$GPRMC,231719.385,A,4048.865,N,11155.314,W,038.9,216.1,090120,000.0,W*61
$GPGGA,231720.385,4048.855,N,11155.321,W,1,12,1.0,0.0,M,0.0,M,,*76
$GPGSA,A,3,01,02,03,04,05,06,07,08,09,10,11,12,1.0,1.0,1.0*30
$GPRMC,231720.385,A,4048.855,N,11155.321,W,038.9,216.1,090120,000.0,W*6E
$GPGGA,231721.385,4048.846,N,11155.328,W,1,12,1.0,0.0,M,0.0,M,,*7C
$GPGSA,A,3,01,02,03,04,05,06,07,08,09,10,11,12,1.0,1.0,1.0*30
$GPRMC,231721.385,A,4048.846,N,11155.328,W,038.9,216.1,090120,000.0,W*64
$GPGGA,231722.385,4048.836,N,11155.335,W,1,12,1.0,0.0,M,0.0,M,,*74
$GPGSA,A,3,01,02,03,04,05,06,07,08,09,10,11,12,1.0,1.0,1.0*30
$GPRMC,231722.385,A,4048.836,N,11155.335,W,038.9,216.1,090120,000.0,W*6C
$GPGGA,231723.385,4048.827,N,11155.342,W,1,12,1.0,0.0,M,0.0,M,,*75
$GPGSA,A,3,01,02,03,04,05,06,07,08,09,10,11,12,1.0,1.0,1.0*30
$GPRMC,231723.385,A,4048.827,N,11155.342,W,038.9,216.1,090120,000.0,W*6D
$GPGGA,231724.385,4048.818,N,11155.349,W,1,12,1.0,0.0,M,0.0,M,,*75
$GPGSA,A,3,01,02,03,04,05,06,07,08,09,10,11,12,1.0,1.0,1.0*30
$GPRMC,231724.385,A,4048.818,N,11155.349,W,038.9,216.1,090120,000.0,W*6D
$GPGGA,231725.385,4048.808,N,11155.356,W,1,12,1.0,0.0,M,0.0,M,,*7B
$GPGSA,A,3,01,02,03,04,05,06,07,08,09,10,11,12,1.0,1.0,1.0*30
$GPRMC,231725.385,A,4048.808,N,11155.356,W,038.9,216.1,090120,000.0,W*63
$GPGGA,231726.385,4048.799,N,11155.363,W,1,12,1.0,0.0,M,0.0,M,,*79
$GPGSA,A,3,01,02,03,04,05,06,07,08,09,10,11,12,1.0,1.0,1.0*30
$GPRMC,231726.385,A,4048.799,N,11155.363,W,038.9,216.1,090120,000.0,W*61
$GPGGA,231727.385,4048.789,N,11155.370,W,1,12,1.0,0.0,M,0.0,M,,*7B
$GPGSA,A,3,01,02,03,04,05,06,07,08,09,10,11,12,1.0,1.0,1.0*30
$GPRMC,231727.385,A,4048.789,N,11155.370,W,038.9,216.1,090120,000.0,W*63
$GPGGA,231728.385,4048.780,N,11155.376,W,1,12,1.0,0.0,M,0.0,M,,*7B
$GPGSA,A,3,01,02,03,04,05,06,07,08,09,10,11,12,1.0,1.0,1.0*30
$GPRMC,231728.385,A,4048.780,N,11155.376,W,038.9,216.1,090120,000.0,W*63
$GPGGA,231729.385,4048.770,N,11155.383,W,1,12,1.0,0.0,M,0.0,M,,*7F
$GPGSA,A,3,01,02,03,04,05,06,07,08,09,10,11,12,1.0,1.0,1.0*30
$GPRMC,231729.385,A,4048.770,N,11155.383,W,038.9,206.6,090120,000.0,W*61
$GPGGA,231730.385,4048.760,N,11155.388,W,1,12,1.0,0.0,M,0.0,M,,*7D
$GPGSA,A,3,01,02,03,04,05,06,07,08,09,10,11,12,1.0,1.0,1.0*30
$GPRMC,231730.385,A,4048.760,N,11155.388,W,038.9,206.6,090120,000.0,W*63
$GPGGA,231731.385,4048.750,N,11155.393,W,1,12,1.0,0.0,M,0.0,M,,*75
$GPGSA,A,3,01,02,03,04,05,06,07,08,09,10,11,12,1.0,1.0,1.0*30
$GPRMC,231731.385,A,4048.750,N,11155.393,W,038.9,206.6,090120,000.0,W*6B
$GPGGA,231732.385,4048.740,N,11155.398,W,1,12,1.0,0.0,M,0.0,M,,*7C
$GPGSA,A,3,01,02,03,04,05,06,07,08,09,10,11,12,1.0,1.0,1.0*30
$GPRMC,231732.385,A,4048.740,N,11155.398,W,038.9,206.6,090120,000.0,W*62
$GPGGA,231733.385,4048.730,N,11155.404,W,1,12,1.0,0.0,M,0.0,M,,*78
$GPGSA,A,3,01,02,03,04,05,06,07,08,09,10,11,12,1.0,1.0,1.0*30
$GPRMC,231733.385,A,4048.730,N,11155.404,W,038.9,206.6,090120,000.0,W*66
$GPGGA,231734.385,4048.720,N,11155.409,W,1,12,1.0,0.0,M,0.0,M,,*73
$GPGSA,A,3,01,02,03,04,05,06,07,08,09,10,11,12,1.0,1.0,1.0*30
$GPRMC,231734.385,A,4048.720,N,11155.409,W,038.9,206.6,090120,000.0,W*6D
$GPGGA,231735.385,4048.710,N,11155.414,W,1,12,1.0,0.0,M,0.0,M,,*7D
$GPGSA,A,3,01,02,03,04,05,06,07,08,09,10,11,12,1.0,1.0,1.0*30
$GPRMC,231735.385,A,4048.710,N,11155.414,W,038.9,206.6,090120,000.0,W*63
$GPGGA,231736.385,4048.700,N,11155.419,W,1,12,1.0,0.0,M,0.0,M,,*72
$GPGSA,A,3,01,02,03,04,05,06,07,08,09,10,11,12,1.0,1.0,1.0*30
$GPRMC,231736.385,A,4048.700,N,11155.419,W,038.9,206.6,090120,000.0,W*6C
$GPGGA,231737.385,4048.690,N,11155.424,W,1,12,1.0,0.0,M,0.0,M,,*75
$GPGSA,A,3,01,02,03,04,05,06,07,08,09,10,11,12,1.0,1.0,1.0*30
$GPRMC,231737.385,A,4048.690,N,11155.424,W,038.9,184.1,090120,000.0,W*65
$GPGGA,231738.385,4048.679,N,11155.425,W,1,12,1.0,0.0,M,0.0,M,,*7C
$GPGSA,A,3,01,02,03,04,05,06,07,08,09,10,11,12,1.0,1.0,1.0*30
$GPRMC,231738.385,A,4048.679,N,11155.425,W,038.9,184.1,090120,000.0,W*6C
$GPGGA,231739.385,4048.668,N,11155.425,W,1,12,1.0,0.0,M,0.0,M,,*7D
$GPGSA,A,3,01,02,03,04,05,06,07,08,09,10,11,12,1.0,1.0,1.0*30
$GPRMC,231739.385,A,4048.668,N,11155.425,W,038.9,184.1,090120,000.0,W*6D
$GPGGA,231740.385,4048.657,N,11155.426,W,1,12,1.0,0.0,M,0.0,M,,*7C
$GPGSA,A,3,01,02,03,04,05,06,07,08,09,10,11,12,1.0,1.0,1.0*30
$GPRMC,231740.385,A,4048.657,N,11155.426,W,038.9,184.1,090120,000.0,W*6C
$GPGGA,231741.385,4048.647,N,11155.427,W,1,12,1.0,0.0,M,0.0,M,,*7D
$GPGSA,A,3,01,02,03,04,05,06,07,08,09,10,11,12,1.0,1.0,1.0*30
$GPRMC,231741.385,A,4048.647,N,11155.427,W,038.9,184.1,090120,000.0,W*6D
$GPGGA,231742.385,4048.636,N,11155.428,W,1,12,1.0,0.0,M,0.0,M,,*77
$GPGSA,A,3,01,02,03,04,05,06,07,08,09,10,11,12,1.0,1.0,1.0*30
$GPRMC,231742.385,A,4048.636,N,11155.428,W,038.9,184.1,090120,000.0,W*67
$GPGGA,231743.385,4048.625,N,11155.428,W,1,12,1.0,0.0,M,0.0,M,,*74
$GPGSA,A,3,01,02,03,04,05,06,07,08,09,10,11,12,1.0,1.0,1.0*30
$GPRMC,231743.385,A,4048.625,N,11155.428,W,038.9,184.1,090120,000.0,W*64
$GPGGA,231744.385,4048.614,N,11155.429,W,1,12,1.0,0.0,M,0.0,M,,*70
$GPGSA,A,3,01,02,03,04,05,06,07,08,09,10,11,12,1.0,1.0,1.0*30
$GPRMC,231744.385,A,4048.614,N,11155.429,W,038.9,184.1,090120,000.0,W*60
$GPGGA,231745.385,4048.603,N,11155.430,W,1,12,1.0,0.0,M,0.0,M,,*7F
$GPGSA,A,3,01,02,03,04,05,06,07,08,09,10,11,12,1.0,1.0,1.0*30
$GPRMC,231745.385,A,4048.603,N,11155.430,W,038.9,184.1,090120,000.0,W*6F
$GPGGA,231746.385,4048.593,N,11155.431,W,1,12,1.0,0.0,M,0.0,M,,*77
$GPGSA,A,3,01,02,03,04,05,06,07,08,09,10,11,12,1.0,1.0,1.0*30
$GPRMC,231746.385,A,4048.593,N,11155.431,W,038.9,184.1,090120,000.0,W*67
$GPGGA,231747.385,4048.582,N,11155.432,W,1,12,1.0,0.0,M,0.0,M,,*75
$GPGSA,A,3,01,02,03,04,05,06,07,08,09,10,11,12,1.0,1.0,1.0*30
$GPRMC,231747.385,A,4048.582,N,11155.432,W,038.9,184.1,090120,000.0,W*65
$GPGGA,231748.385,4048.571,N,11155.432,W,1,12,1.0,0.0,M,0.0,M,,*76
$GPGSA,A,3,01,02,03,04,05,06,07,08,09,10,11,12,1.0,1.0,1.0*30
$GPRMC,231748.385,A,4048.571,N,11155.432,W,038.9,184.1,090120,000.0,W*66
$GPGGA,231749.385,4048.560,N,11155.433,W,1,12,1.0,0.0,M,0.0,M,,*76
$GPGSA,A,3,01,02,03,04,05,06,07,08,09,10,11,12,1.0,1.0,1.0*30
$GPRMC,231749.385,A,4048.560,N,11155.433,W,038.9,184.1,090120,000.0,W*66
$GPGGA,231750.385,4048.550,N,11155.434,W,1,12,1.0,0.0,M,0.0,M,,*7A
$GPGSA,A,3,01,02,03,04,05,06,07,08,09,10,11,12,1.0,1.0,1.0*30
$GPRMC,231750.385,A,4048.550,N,11155.434,W,038.9,184.1,090120,000.0,W*6A
$GPGGA,231751.385,4048.539,N,11155.435,W,1,12,1.0,0.0,M,0.0,M,,*75
$GPGSA,A,3,01,02,03,04,05,06,07,08,09,10,11,12,1.0,1.0,1.0*30
$GPRMC,231751.385,A,4048.539,N,11155.435,W,038.9,184.1,090120,000.0,W*65
$GPGGA,231752.385,4048.528,N,11155.435,W,1,12,1.0,0.0,M,0.0,M,,*76
$GPGSA,A,3,01,02,03,04,05,06,07,08,09,10,11,12,1.0,1.0,1.0*30
$GPRMC,231752.385,A,4048.528,N,11155.435,W,038.9,155.9,090120,000.0,W*62
$GPGGA,231753.385,4048.518,N,11155.431,W,1,12,1.0,0.0,M,0.0,M,,*70
$GPGSA,A,3,01,02,03,04,05,06,07,08,09,10,11,12,1.0,1.0,1.0*30
$GPRMC,231753.385,A,4048.518,N,11155.431,W,038.9,155.9,090120,000.0,W*64
$GPGGA,231754.385,4048.508,N,11155.426,W,1,12,1.0,0.0,M,0.0,M,,*70
$GPGSA,A,3,01,02,03,04,05,06,07,08,09,10,11,12,1.0,1.0,1.0*30
$GPRMC,231754.385,A,4048.508,N,11155.426,W,038.9,155.9,090120,000.0,W*64
$GPGGA,231755.385,4048.497,N,11155.422,W,1,12,1.0,0.0,M,0.0,M,,*72
$GPGSA,A,3,01,02,03,04,05,06,07,08,09,10,11,12,1.0,1.0,1.0*30
$GPRMC,231755.385,A,4048.497,N,11155.422,W,038.9,155.9,090120,000.0,W*66
$GPGGA,231756.385,4048.487,N,11155.417,W,1,12,1.0,0.0,M,0.0,M,,*76
$GPGSA,A,3,01,02,03,04,05,06,07,08,09,10,11,12,1.0,1.0,1.0*30
$GPRMC,231756.385,A,4048.487,N,11155.417,W,038.9,155.9,090120,000.0,W*62
$GPGGA,231757.385,4048.477,N,11155.412,W,1,12,1.0,0.0,M,0.0,M,,*7D
$GPGSA,A,3,01,02,03,04,05,06,07,08,09,10,11,12,1.0,1.0,1.0*30
$GPRMC,231757.385,A,4048.477,N,11155.412,W,038.9,155.9,090120,000.0,W*69
$GPGGA,231758.385,4048.467,N,11155.408,W,1,12,1.0,0.0,M,0.0,M,,*78
$GPGSA,A,3,01,02,03,04,05,06,07,08,09,10,11,12,1.0,1.0,1.0*30
$GPRMC,231758.385,A,4048.467,N,11155.408,W,038.9,155.9,090120,000.0,W*6C
$GPGGA,231759.385,4048.456,N,11155.403,W,1,12,1.0,0.0,M,0.0,M,,*70
$GPGSA,A,3,01,02,03,04,05,06,07,08,09,10,11,12,1.0,1.0,1.0*30
$GPRMC,231759.385,A,4048.456,N,11155.403,W,038.9,155.9,090120,000.0,W*64
$GPGGA,231800.385,4048.446,N,11155.399,W,1,12,1.0,0.0,M,0.0,M,,*76
$GPGSA,A,3,01,02,03,04,05,06,07,08,09,10,11,12,1.0,1.0,1.0*30
$GPRMC,231800.385,A,4048.446,N,11155.399,W,038.9,155.9,090120,000.0,W*62
$GPGGA,231801.385,4048.436,N,11155.394,W,1,12,1.0,0.0,M,0.0,M,,*7D
$GPGSA,A,3,01,02,03,04,05,06,07,08,09,10,11,12,1.0,1.0,1.0*30
$GPRMC,231801.385,A,4048.436,N,11155.394,W,038.9,155.9,090120,000.0,W*69
$GPGGA,231802.385,4048.426,N,11155.389,W,1,12,1.0,0.0,M,0.0,M,,*73
$GPGSA,A,3,01,02,03,04,05,06,07,08,09,10,11,12,1.0,1.0,1.0*30
$GPRMC,231802.385,A,4048.426,N,11155.389,W,038.9,155.9,090120,000.0,W*67
$GPGGA,231803.385,4048.416,N,11155.385,W,1,12,1.0,0.0,M,0.0,M,,*7D
$GPGSA,A,3,01,02,03,04,05,06,07,08,09,10,11,12,1.0,1.0,1.0*30
$GPRMC,231803.385,A,4048.416,N,11155.385,W,038.9,155.9,090120,000.0,W*69
$GPGGA,231804.385,4048.405,N,11155.380,W,1,12,1.0,0.0,M,0.0,M,,*7D
$GPGSA,A,3,01,02,03,04,05,06,07,08,09,10,11,12,1.0,1.0,1.0*30
$GPRMC,231804.385,A,4048.405,N,11155.380,W,038.9,155.9,090120,000.0,W*69
$GPGGA,231805.385,4048.395,N,11155.376,W,1,12,1.0,0.0,M,0.0,M,,*7B
$GPGSA,A,3,01,02,03,04,05,06,07,08,09,10,11,12,1.0,1.0,1.0*30
$GPRMC,231805.385,A,4048.395,N,11155.376,W,038.9,155.9,090120,000.0,W*6F
$GPGGA,231806.385,4048.385,N,11155.371,W,1,12,1.0,0.0,M,0.0,M,,*7E
$GPGSA,A,3,01,02,03,04,05,06,07,08,09,10,11,12,1.0,1.0,1.0*30
$GPRMC,231806.385,A,4048.385,N,11155.371,W,038.9,155.9,090120,000.0,W*6A
$GPGGA,231807.385,4048.375,N,11155.366,W,1,12,1.0,0.0,M,0.0,M,,*76
$GPGSA,A,3,01,02,03,04,05,06,07,08,09,10,11,12,1.0,1.0,1.0*30
$GPRMC,231807.385,A,4048.375,N,11155.366,W,038.9,155.9,090120,000.0,W*62
$GPGGA,231808.385,4048.365,N,11155.362,W,1,12,1.0,0.0,M,0.0,M,,*7C
$GPGSA,A,3,01,02,03,04,05,06,07,08,09,10,11,12,1.0,1.0,1.0*30
$GPRMC,231808.385,A,4048.365,N,11155.362,W,038.9,155.9,090120,000.0,W*68
$GPGGA,231809.385,4048.354,N,11155.357,W,1,12,1.0,0.0,M,0.0,M,,*79
$GPGSA,A,3,01,02,03,04,05,06,07,08,09,10,11,12,1.0,1.0,1.0*30
$GPRMC,231809.385,A,4048.354,N,11155.357,W,038.9,155.9,090120,000.0,W*6D
$GPGGA,231810.385,4048.344,N,11155.353,W,1,12,1.0,0.0,M,0.0,M,,*74
$GPGSA,A,3,01,02,03,04,05,06,07,08,09,10,11,12,1.0,1.0,1.0*30
$GPRMC,231810.385,A,4048.344,N,11155.353,W,038.9,155.9,090120,000.0,W*60
$GPGGA,231811.385,4048.334,N,11155.348,W,1,12,1.0,0.0,M,0.0,M,,*78
$GPGSA,A,3,01,02,03,04,05,06,07,08,09,10,11,12,1.0,1.0,1.0*30
$GPRMC,231811.385,A,4048.334,N,11155.348,W,038.9,155.9,090120,000.0,W*6C
$GPGGA,231812.385,4048.324,N,11155.344,W,1,12,1.0,0.0,M,0.0,M,,*76
$GPGSA,A,3,01,02,03,04,05,06,07,08,09,10,11,12,1.0,1.0,1.0*30
$GPRMC,231812.385,A,4048.324,N,11155.344,W,038.9,155.9,090120,000.0,W*62
$GPGGA,231813.385,4048.313,N,11155.339,W,1,12,1.0,0.0,M,0.0,M,,*79
$GPGSA,A,3,01,02,03,04,05,06,07,08,09,10,11,12,1.0,1.0,1.0*30
$GPRMC,231813.385,A,4048.313,N,11155.339,W,038.9,155.9,090120,000.0,W*6D
