$GPGGA,154110.396,4043.458,N,11155.030,W,1,12,1.0,0.0,M,0.0,M,,*78
$GPGSA,A,3,01,02,03,04,05,06,07,08,09,10,11,12,1.0,1.0,1.0*30
$GPRMC,154110.396,A,4043.458,N,11155.030,W,038.9,271.6,100120,000.0,W*6E
$GPGGA,154111.396,4043.458,N,11155.044,W,1,12,1.0,0.0,M,0.0,M,,*7A
$GPGSA,A,3,01,02,03,04,05,06,07,08,09,10,11,12,1.0,1.0,1.0*30
$GPRMC,154111.396,A,4043.458,N,11155.044,W,038.9,271.6,100120,000.0,W*6C
$GPGGA,154112.396,4043.459,N,11155.058,W,1,12,1.0,0.0,M,0.0,M,,*75
$GPGSA,A,3,01,02,03,04,05,06,07,08,09,10,11,12,1.0,1.0,1.0*30
$GPRMC,154112.396,A,4043.459,N,11155.058,W,038.9,271.6,100120,000.0,W*63
$GPGGA,154113.396,4043.459,N,11155.073,W,1,12,1.0,0.0,M,0.0,M,,*7D
$GPGSA,A,3,01,02,03,04,05,06,07,08,09,10,11,12,1.0,1.0,1.0*30
$GPRMC,154113.396,A,4043.459,N,11155.073,W,038.9,271.6,100120,000.0,W*6B
$GPGGA,154114.396,4043.460,N,11155.087,W,1,12,1.0,0.0,M,0.0,M,,*7B
$GPGSA,A,3,01,02,03,04,05,06,07,08,09,10,11,12,1.0,1.0,1.0*30
$GPRMC,154114.396,A,4043.460,N,11155.087,W,038.9,271.6,100120,000.0,W*6D
$GPGGA,154115.396,4043.460,N,11155.101,W,1,12,1.0,0.0,M,0.0,M,,*75
$GPGSA,A,3,01,02,03,04,05,06,07,08,09,10,11,12,1.0,1.0,1.0*30
$GPRMC,154115.396,A,4043.460,N,11155.101,W,038.9,271.6,100120,000.0,W*63
$GPGGA,154116.396,4043.460,N,11155.115,W,1,12,1.0,0.0,M,0.0,M,,*73
$GPGSA,A,3,01,02,03,04,05,06,07,08,09,10,11,12,1.0,1.0,1.0*30
$GPRMC,154116.396,A,4043.460,N,11155.115,W,038.9,271.6,100120,000.0,W*65
$GPGGA,154117.396,4043.461,N,11155.130,W,1,12,1.0,0.0,M,0.0,M,,*74
$GPGSA,A,3,01,02,03,04,05,06,07,08,09,10,11,12,1.0,1.0,1.0*30
$GPRMC,154117.396,A,4043.461,N,11155.130,W,038.9,271.6,100120,000.0,W*62
$GPGGA,154118.396,4043.461,N,11155.144,W,1,12,1.0,0.0,M,0.0,M,,*78
$GPGSA,A,3,01,02,03,04,05,06,07,08,09,10,11,12,1.0,1.0,1.0*30
$GPRMC,154118.396,A,4043.461,N,11155.144,W,038.9,271.6,100120,000.0,W*6E
$GPGGA,154119.396,4043.462,N,11155.158,W,1,12,1.0,0.0,M,0.0,M,,*77
$GPGSA,A,3,01,02,03,04,05,06,07,08,09,10,11,12,1.0,1.0,1.0*30
$GPRMC,154119.396,A,4043.462,N,11155.158,W,038.9,271.6,100120,000.0,W*61
$GPGGA,154120.396,4043.462,N,11155.172,W,1,12,1.0,0.0,M,0.0,M,,*75
$GPGSA,A,3,01,02,03,04,05,06,07,08,09,10,11,12,1.0,1.0,1.0*30
$GPRMC,154120.396,A,4043.462,N,11155.172,W,038.9,271.6,100120,000.0,W*63
$GPGGA,154121.396,4043.462,N,11155.187,W,1,12,1.0,0.0,M,0.0,M,,*7E
$GPGSA,A,3,01,02,03,04,05,06,07,08,09,10,11,12,1.0,1.0,1.0*30
$GPRMC,154121.396,A,4043.462,N,11155.187,W,038.9,271.6,100120,000.0,W*68
$GPGGA,154122.396,4043.463,N,11155.201,W,1,12,1.0,0.0,M,0.0,M,,*71
$GPGSA,A,3,01,02,03,04,05,06,07,08,09,10,11,12,1.0,1.0,1.0*30
$GPRMC,154122.396,A,4043.463,N,11155.201,W,038.9,271.6,100120,000.0,W*67
$GPGGA,154123.396,4043.463,N,11155.215,W,1,12,1.0,0.0,M,0.0,M,,*75
$GPGSA,A,3,01,02,03,04,05,06,07,08,09,10,11,12,1.0,1.0,1.0*30
$GPRMC,154123.396,A,4043.463,N,11155.215,W,038.9,271.6,100120,000.0,W*63
$GPGGA,154124.396,4043.464,N,11155.229,W,1,12,1.0,0.0,M,0.0,M,,*7A
$GPGSA,A,3,01,02,03,04,05,06,07,08,09,10,11,12,1.0,1.0,1.0*30
$GPRMC,154124.396,A,4043.464,N,11155.229,W,038.9,271.6,100120,000.0,W*6C
$GPGGA,154125.396,4043.464,N,11155.243,W,1,12,1.0,0.0,M,0.0,M,,*77
$GPGSA,A,3,01,02,03,04,05,06,07,08,09,10,11,12,1.0,1.0,1.0*30
$GPRMC,154125.396,A,4043.464,N,11155.243,W,038.9,271.6,100120,000.0,W*61
$GPGGA,154126.396,4043.464,N,11155.258,W,1,12,1.0,0.0,M,0.0,M,,*7E
$GPGSA,A,3,01,02,03,04,05,06,07,08,09,10,11,12,1.0,1.0,1.0*30
$GPRMC,154126.396,A,4043.464,N,11155.258,W,038.9,271.6,100120,000.0,W*68
$GPGGA,154127.396,4043.465,N,11155.272,W,1,12,1.0,0.0,M,0.0,M,,*76
$GPGSA,A,3,01,02,03,04,05,06,07,08,09,10,11,12,1.0,1.0,1.0*30
$GPRMC,154127.396,A,4043.465,N,11155.272,W,038.9,271.6,100120,000.0,W*60
$GPGGA,154128.396,4043.465,N,11155.286,W,1,12,1.0,0.0,M,0.0,M,,*72
$GPGSA,A,3,01,02,03,04,05,06,07,08,09,10,11,12,1.0,1.0,1.0*30
$GPRMC,154128.396,A,4043.465,N,11155.286,W,038.9,271.6,100120,000.0,W*64
$GPGGA,154129.396,4043.466,N,11155.300,W,1,12,1.0,0.0,M,0.0,M,,*7F
$GPGSA,A,3,01,02,03,04,05,06,07,08,09,10,11,12,1.0,1.0,1.0*30
$GPRMC,154129.396,A,4043.466,N,11155.300,W,038.9,271.6,100120,000.0,W*69
$GPGGA,154130.396,4043.466,N,11155.315,W,1,12,1.0,0.0,M,0.0,M,,*73
$GPGSA,A,3,01,02,03,04,05,06,07,08,09,10,11,12,1.0,1.0,1.0*30
$GPRMC,154130.396,A,4043.466,N,11155.315,W,038.9,271.6,100120,000.0,W*65
$GPGGA,154131.396,4043.466,N,11155.329,W,1,12,1.0,0.0,M,0.0,M,,*7D
$GPGSA,A,3,01,02,03,04,05,06,07,08,09,10,11,12,1.0,1.0,1.0*30
$GPRMC,154131.396,A,4043.466,N,11155.329,W,038.9,271.6,100120,000.0,W*6B
$GPGGA,154132.396,4043.467,N,11155.343,W,1,12,1.0,0.0,M,0.0,M,,*73
$GPGSA,A,3,01,02,03,04,05,06,07,08,09,10,11,12,1.0,1.0,1.0*30
$GPRMC,154132.396,A,4043.467,N,11155.343,W,038.9,271.6,100120,000.0,W*65
$GPGGA,154133.396,4043.467,N,11155.357,W,1,12,1.0,0.0,M,0.0,M,,*77
$GPGSA,A,3,01,02,03,04,05,06,07,08,09,10,11,12,1.0,1.0,1.0*30
$GPRMC,154133.396,A,4043.467,N,11155.357,W,038.9,271.6,100120,000.0,W*61
$GPGGA,154134.396,4043.468,N,11155.372,W,1,12,1.0,0.0,M,0.0,M,,*78
$GPGSA,A,3,01,02,03,04,05,06,07,08,09,10,11,12,1.0,1.0,1.0*30
$GPRMC,154134.396,A,4043.468,N,11155.372,W,038.9,271.6,100120,000.0,W*6E
$GPGGA,154135.396,4043.468,N,11155.386,W,1,12,1.0,0.0,M,0.0,M,,*72
$GPGSA,A,3,01,02,03,04,05,06,07,08,09,10,11,12,1.0,1.0,1.0*30
$GPRMC,154135.396,A,4043.468,N,11155.386,W,038.9,271.6,100120,000.0,W*64
$GPGGA,154136.396,4043.468,N,11155.400,W,1,12,1.0,0.0,M,0.0,M,,*78
$GPGSA,A,3,01,02,03,04,05,06,07,08,09,10,11,12,1.0,1.0,1.0*30
$GPRMC,154136.396,A,4043.468,N,11155.400,W,038.9,271.6,100120,000.0,W*6E
$GPGGA,154137.396,4043.469,N,11155.414,W,1,12,1.0,0.0,M,0.0,M,,*7D
$GPGSA,A,3,01,02,03,04,05,06,07,08,09,10,11,12,1.0,1.0,1.0*30
$GPRMC,154137.396,A,4043.469,N,11155.414,W,038.9,271.6,100120,000.0,W*6B
$GPGGA,154138.396,4043.469,N,11155.428,W,1,12,1.0,0.0,M,0.0,M,,*7D
$GPGSA,A,3,01,02,03,04,05,06,07,08,09,10,11,12,1.0,1.0,1.0*30
$GPRMC,154138.396,A,4043.469,N,11155.428,W,038.9,271.6,100120,000.0,W*6B
$GPGGA,154139.396,4043.470,N,11155.443,W,1,12,1.0,0.0,M,0.0,M,,*79
$GPGSA,A,3,01,02,03,04,05,06,07,08,09,10,11,12,1.0,1.0,1.0*30
$GPRMC,154139.396,A,4043.470,N,11155.443,W,038.9,269.3,100120,000.0,W*63
$GPGGA,154140.396,4043.469,N,11155.457,W,1,12,1.0,0.0,M,0.0,M,,*7A
$GPGSA,A,3,01,02,03,04,05,06,07,08,09,10,11,12,1.0,1.0,1.0*30
$GPRMC,154140.396,A,4043.469,N,11155.457,W,038.9,269.3,100120,000.0,W*60
$GPGGA,154141.396,4043.469,N,11155.471,W,1,12,1.0,0.0,M,0.0,M,,*7F
$GPGSA,A,3,01,02,03,04,05,06,07,08,09,10,11,12,1.0,1.0,1.0*30
$GPRMC,154141.396,A,4043.469,N,11155.471,W,038.9,269.3,100120,000.0,W*65
$GPGGA,154142.396,4043.469,N,11155.485,W,1,12,1.0,0.0,M,0.0,M,,*77
$GPGSA,A,3,01,02,03,04,05,06,07,08,09,10,11,12,1.0,1.0,1.0*30
$GPRMC,154142.396,A,4043.469,N,11155.485,W,038.9,269.3,100120,000.0,W*6D
$GPGGA,154143.396,4043.469,N,11155.500,W,1,12,1.0,0.0,M,0.0,M,,*7A
$GPGSA,A,3,01,02,03,04,05,06,07,08,09,10,11,12,1.0,1.0,1.0*30
$GPRMC,154143.396,A,4043.469,N,11155.500,W,038.9,269.3,100120,000.0,W*60
$GPGGA,154144.396,4043.469,N,11155.514,W,1,12,1.0,0.0,M,0.0,M,,*78
$GPGSA,A,3,01,02,03,04,05,06,07,08,09,10,11,12,1.0,1.0,1.0*30
$GPRMC,154144.396,A,4043.469,N,11155.514,W,038.9,269.3,100120,000.0,W*62
$GPGGA,154145.396,4043.468,N,11155.528,W,1,12,1.0,0.0,M,0.0,M,,*77
$GPGSA,A,3,01,02,03,04,05,06,07,08,09,10,11,12,1.0,1.0,1.0*30
$GPRMC,154145.396,A,4043.468,N,11155.528,W,038.9,269.3,100120,000.0,W*6D
$GPGGA,154146.396,4043.468,N,11155.542,W,1,12,1.0,0.0,M,0.0,M,,*78
$GPGSA,A,3,01,02,03,04,05,06,07,08,09,10,11,12,1.0,1.0,1.0*30
$GPRMC,154146.396,A,4043.468,N,11155.542,W,038.9,269.3,100120,000.0,W*62
$GPGGA,154147.396,4043.468,N,11155.557,W,1,12,1.0,0.0,M,0.0,M,,*7D
$GPGSA,A,3,01,02,03,04,05,06,07,08,09,10,11,12,1.0,1.0,1.0*30
$GPRMC,154147.396,A,4043.468,N,11155.557,W,038.9,269.3,100120,000.0,W*67
$GPGGA,154148.396,4043.468,N,11155.571,W,1,12,1.0,0.0,M,0.0,M,,*76
$GPGSA,A,3,01,02,03,04,05,06,07,08,09,10,11,12,1.0,1.0,1.0*30
$GPRMC,154148.396,A,4043.468,N,11155.571,W,038.9,269.3,100120,000.0,W*6C
$GPGGA,154149.396,4043.468,N,11155.585,W,1,12,1.0,0.0,M,0.0,M,,*7C
$GPGSA,A,3,01,02,03,04,05,06,07,08,09,10,11,12,1.0,1.0,1.0*30
$GPRMC,154149.396,A,4043.468,N,11155.585,W,038.9,269.3,100120,000.0,W*66
$GPGGA,154150.396,4043.468,N,11155.599,W,1,12,1.0,0.0,M,0.0,M,,*79
$GPGSA,A,3,01,02,03,04,05,06,07,08,09,10,11,12,1.0,1.0,1.0*30
$GPRMC,154150.396,A,4043.468,N,11155.599,W,038.9,269.3,100120,000.0,W*63
$GPGGA,154151.396,4043.467,N,11155.614,W,1,12,1.0,0.0,M,0.0,M,,*71
$GPGSA,A,3,01,02,03,04,05,06,07,08,09,10,11,12,1.0,1.0,1.0*30
$GPRMC,154151.396,A,4043.467,N,11155.614,W,038.9,269.3,100120,000.0,W*6B
$GPGGA,154152.396,4043.467,N,11155.628,W,1,12,1.0,0.0,M,0.0,M,,*7D
$GPGSA,A,3,01,02,03,04,05,06,07,08,09,10,11,12,1.0,1.0,1.0*30
$GPRMC,154152.396,A,4043.467,N,11155.628,W,038.9,269.3,100120,000.0,W*67
$GPGGA,154153.396,4043.467,N,11155.642,W,1,12,1.0,0.0,M,0.0,M,,*70
$GPGSA,A,3,01,02,03,04,05,06,07,08,09,10,11,12,1.0,1.0,1.0*30
$GPRMC,154153.396,A,4043.467,N,11155.642,W,038.9,269.3,100120,000.0,W*6A
$GPGGA,154154.396,4043.467,N,11155.656,W,1,12,1.0,0.0,M,0.0,M,,*72
$GPGSA,A,3,01,02,03,04,05,06,07,08,09,10,11,12,1.0,1.0,1.0*30
$GPRMC,154154.396,A,4043.467,N,11155.656,W,038.9,269.3,100120,000.0,W*68
$GPGGA,154155.396,4043.467,N,11155.670,W,1,12,1.0,0.0,M,0.0,M,,*77
$GPGSA,A,3,01,02,03,04,05,06,07,08,09,10,11,12,1.0,1.0,1.0*30
$GPRMC,154155.396,A,4043.467,N,11155.670,W,038.9,269.3,100120,000.0,W*6D
$GPGGA,154156.396,4043.466,N,11155.685,W,1,12,1.0,0.0,M,0.0,M,,*7F
$GPGSA,A,3,01,02,03,04,05,06,07,08,09,10,11,12,1.0,1.0,1.0*30
$GPRMC,154156.396,A,4043.466,N,11155.685,W,038.9,269.3,100120,000.0,W*65
$GPGGA,154157.396,4043.466,N,11155.699,W,1,12,1.0,0.0,M,0.0,M,,*73
$GPGSA,A,3,01,02,03,04,05,06,07,08,09,10,11,12,1.0,1.0,1.0*30
$GPRMC,154157.396,A,4043.466,N,11155.699,W,038.9,269.3,100120,000.0,W*69
$GPGGA,154158.396,4043.466,N,11155.713,W,1,12,1.0,0.0,M,0.0,M,,*7F
$GPGSA,A,3,01,02,03,04,05,06,07,08,09,10,11,12,1.0,1.0,1.0*30
$GPRMC,154158.396,A,4043.466,N,11155.713,W,038.9,269.3,100120,000.0,W*65
$GPGGA,154159.396,4043.466,N,11155.727,W,1,12,1.0,0.0,M,0.0,M,,*79
$GPGSA,A,3,01,02,03,04,05,06,07,08,09,10,11,12,1.0,1.0,1.0*30
$GPRMC,154159.396,A,4043.466,N,11155.727,W,038.9,269.3,100120,000.0,W*63
$GPGGA,154200.396,4043.466,N,11155.742,W,1,12,1.0,0.0,M,0.0,M,,*75
$GPGSA,A,3,01,02,03,04,05,06,07,08,09,10,11,12,1.0,1.0,1.0*30
$GPRMC,154200.396,A,4043.466,N,11155.742,W,038.9,269.3,100120,000.0,W*6F
$GPGGA,154201.396,4043.465,N,11155.756,W,1,12,1.0,0.0,M,0.0,M,,*72
$GPGSA,A,3,01,02,03,04,05,06,07,08,09,10,11,12,1.0,1.0,1.0*30
$GPRMC,154201.396,A,4043.465,N,11155.756,W,038.9,269.3,100120,000.0,W*68
$GPGGA,154202.396,4043.465,N,11155.770,W,1,12,1.0,0.0,M,0.0,M,,*75
$GPGSA,A,3,01,02,03,04,05,06,07,08,09,10,11,12,1.0,1.0,1.0*30
$GPRMC,154202.396,A,4043.465,N,11155.770,W,038.9,269.3,100120,000.0,W*6F
$GPGGA,154203.396,4043.465,N,11155.784,W,1,12,1.0,0.0,M,0.0,M,,*7F
$GPGSA,A,3,01,02,03,04,05,06,07,08,09,10,11,12,1.0,1.0,1.0*30
$GPRMC,154203.396,A,4043.465,N,11155.784,W,038.9,269.3,100120,000.0,W*65
$GPGGA,154204.396,4043.465,N,11155.799,W,1,12,1.0,0.0,M,0.0,M,,*74
$GPGSA,A,3,01,02,03,04,05,06,07,08,09,10,11,12,1.0,1.0,1.0*30
$GPRMC,154204.396,A,4043.465,N,11155.799,W,038.9,269.3,100120,000.0,W*6E
$GPGGA,154205.396,4043.465,N,11155.813,W,1,12,1.0,0.0,M,0.0,M,,*78
$GPGSA,A,3,01,02,03,04,05,06,07,08,09,10,11,12,1.0,1.0,1.0*30
$GPRMC,154205.396,A,4043.465,N,11155.813,W,038.9,269.3,100120,000.0,W*62
$GPGGA,154206.396,4043.465,N,11155.827,W,1,12,1.0,0.0,M,0.0,M,,*7C
$GPGSA,A,3,01,02,03,04,05,06,07,08,09,10,11,12,1.0,1.0,1.0*30
$GPRMC,154206.396,A,4043.465,N,11155.827,W,038.9,269.3,100120,000.0,W*66
$GPGGA,154207.396,4043.464,N,11155.841,W,1,12,1.0,0.0,M,0.0,M,,*7C
$GPGSA,A,3,01,02,03,04,05,06,07,08,09,10,11,12,1.0,1.0,1.0*30
$GPRMC,154207.396,A,4043.464,N,11155.841,W,038.9,269.3,100120,000.0,W*66
$GPGGA,154208.396,4043.464,N,11155.856,W,1,12,1.0,0.0,M,0.0,M,,*75
$GPGSA,A,3,01,02,03,04,05,06,07,08,09,10,11,12,1.0,1.0,1.0*30
$GPRMC,154208.396,A,4043.464,N,11155.856,W,038.9,269.3,100120,000.0,W*6F
$GPGGA,154209.396,4043.464,N,11155.870,W,1,12,1.0,0.0,M,0.0,M,,*70
$GPGSA,A,3,01,02,03,04,05,06,07,08,09,10,11,12,1.0,1.0,1.0*30
$GPRMC,154209.396,A,4043.464,N,11155.870,W,038.9,269.3,100120,000.0,W*6A
$GPGGA,154210.396,4043.464,N,11155.884,W,1,12,1.0,0.0,M,0.0,M,,*73
$GPGSA,A,3,01,02,03,04,05,06,07,08,09,10,11,12,1.0,1.0,1.0*30
$GPRMC,154210.396,A,4043.464,N,11155.884,W,038.9,269.3,100120,000.0,W*69
$GPGGA,154211.396,4043.464,N,11155.898,W,1,12,1.0,0.0,M,0.0,M,,*7F
$GPGSA,A,3,01,02,03,04,05,06,07,08,09,10,11,12,1.0,1.0,1.0*30
$GPRMC,154211.396,A,4043.464,N,11155.898,W,038.9,269.3,100120,000.0,W*65
$GPGGA,154212.396,4043.463,N,11155.913,W,1,12,1.0,0.0,M,0.0,M,,*79
$GPGSA,A,3,01,02,03,04,05,06,07,08,09,10,11,12,1.0,1.0,1.0*30
$GPRMC,154212.396,A,4043.463,N,11155.913,W,038.9,269.3,100120,000.0,W*63
$GPGGA,154213.396,4043.463,N,11155.927,W,1,12,1.0,0.0,M,0.0,M,,*7F
$GPGSA,A,3,01,02,03,04,05,06,07,08,09,10,11,12,1.0,1.0,1.0*30
$GPRMC,154213.396,A,4043.463,N,11155.927,W,038.9,269.3,100120,000.0,W*65
$GPGGA,154214.396,4043.463,N,11155.941,W,1,12,1.0,0.0,M,0.0,M,,*78
$GPGSA,A,3,01,02,03,04,05,06,07,08,09,10,11,12,1.0,1.0,1.0*30
$GPRMC,154214.396,A,4043.463,N,11155.941,W,038.9,269.3,100120,000.0,W*62
$GPGGA,154215.396,4043.463,N,11155.955,W,1,12,1.0,0.0,M,0.0,M,,*7C
$GPGSA,A,3,01,02,03,04,05,06,07,08,09,10,11,12,1.0,1.0,1.0*30
$GPRMC,154215.396,A,4043.463,N,11155.955,W,038.9,269.3,100120,000.0,W*66
$GPGGA,154216.396,4043.463,N,11155.969,W,1,12,1.0,0.0,M,0.0,M,,*70
$GPGSA,A,3,01,02,03,04,05,06,07,08,09,10,11,12,1.0,1.0,1.0*30
$GPRMC,154216.396,A,4043.463,N,11155.969,W,038.9,269.3,100120,000.0,W*6A
$GPGGA,154217.396,4043.463,N,11155.984,W,1,12,1.0,0.0,M,0.0,M,,*72
$GPGSA,A,3,01,02,03,04,05,06,07,08,09,10,11,12,1.0,1.0,1.0*30
$GPRMC,154217.396,A,4043.463,N,11155.984,W,038.9,269.3,100120,000.0,W*68
$GPGGA,154218.396,4043.462,N,11155.998,W,1,12,1.0,0.0,M,0.0,M,,*71
$GPGSA,A,3,01,02,03,04,05,06,07,08,09,10,11,12,1.0,1.0,1.0*30
$GPRMC,154218.396,A,4043.462,N,11155.998,W,038.9,269.3,100120,000.0,W*6B
$GPGGA,154219.396,4043.462,N,11156.012,W,1,12,1.0,0.0,M,0.0,M,,*78
$GPGSA,A,3,01,02,03,04,05,06,07,08,09,10,11,12,1.0,1.0,1.0*30
$GPRMC,154219.396,A,4043.462,N,11156.012,W,038.9,269.3,100120,000.0,W*62
$GPGGA,154220.396,4043.462,N,11156.026,W,1,12,1.0,0.0,M,0.0,M,,*75
$GPGSA,A,3,01,02,03,04,05,06,07,08,09,10,11,12,1.0,1.0,1.0*30
$GPRMC,154220.396,A,4043.462,N,11156.026,W,038.9,268.7,100120,000.0,W*6A
$GPGGA,154221.396,4043.462,N,11156.041,W,1,12,1.0,0.0,M,0.0,M,,*75
$GPGSA,A,3,01,02,03,04,05,06,07,08,09,10,11,12,1.0,1.0,1.0*30
$GPRMC,154221.396,A,4043.462,N,11156.041,W,038.9,268.7,100120,000.0,W*6A
$GPGGA,154222.396,4043.461,N,11156.055,W,1,12,1.0,0.0,M,0.0,M,,*70
$GPGSA,A,3,01,02,03,04,05,06,07,08,09,10,11,12,1.0,1.0,1.0*30
$GPRMC,154222.396,A,4043.461,N,11156.055,W,038.9,268.7,100120,000.0,W*6F
$GPGGA,154223.396,4043.461,N,11156.069,W,1,12,1.0,0.0,M,0.0,M,,*7E
$GPGSA,A,3,01,02,03,04,05,06,07,08,09,10,11,12,1.0,1.0,1.0*30
$GPRMC,154223.396,A,4043.461,N,11156.069,W,038.9,268.7,100120,000.0,W*61
$GPGGA,154224.396,4043.461,N,11156.083,W,1,12,1.0,0.0,M,0.0,M,,*7D
$GPGSA,A,3,01,02,03,04,05,06,07,08,09,10,11,12,1.0,1.0,1.0*30
$GPRMC,154224.396,A,4043.461,N,11156.083,W,038.9,268.7,100120,000.0,W*62
$GPGGA,154225.396,4043.460,N,11156.098,W,1,12,1.0,0.0,M,0.0,M,,*77
$GPGSA,A,3,01,02,03,04,05,06,07,08,09,10,11,12,1.0,1.0,1.0*30
$GPRMC,154225.396,A,4043.460,N,11156.098,W,038.9,268.7,100120,000.0,W*68
$GPGGA,154226.396,4043.460,N,11156.112,W,1,12,1.0,0.0,M,0.0,M,,*77
$GPGSA,A,3,01,02,03,04,05,06,07,08,09,10,11,12,1.0,1.0,1.0*30
$GPRMC,154226.396,A,4043.460,N,11156.112,W,038.9,268.7,100120,000.0,W*68
$GPGGA,154227.396,4043.460,N,11156.126,W,1,12,1.0,0.0,M,0.0,M,,*71
$GPGSA,A,3,01,02,03,04,05,06,07,08,09,10,11,12,1.0,1.0,1.0*30
$GPRMC,154227.396,A,4043.460,N,11156.126,W,038.9,268.7,100120,000.0,W*6E
$GPGGA,154228.396,4043.459,N,11156.140,W,1,12,1.0,0.0,M,0.0,M,,*74
$GPGSA,A,3,01,02,03,04,05,06,07,08,09,10,11,12,1.0,1.0,1.0*30
$GPRMC,154228.396,A,4043.459,N,11156.140,W,038.9,268.7,100120,000.0,W*6B
$GPGGA,154229.396,4043.459,N,11156.155,W,1,12,1.0,0.0,M,0.0,M,,*71
$GPGSA,A,3,01,02,03,04,05,06,07,08,09,10,11,12,1.0,1.0,1.0*30
$GPRMC,154229.396,A,4043.459,N,11156.155,W,038.9,268.7,100120,000.0,W*6E
$GPGGA,154230.396,4043.459,N,11156.169,W,1,12,1.0,0.0,M,0.0,M,,*76
$GPGSA,A,3,01,02,03,04,05,06,07,08,09,10,11,12,1.0,1.0,1.0*30
$GPRMC,154230.396,A,4043.459,N,11156.169,W,038.9,268.7,100120,000.0,W*69
$GPGGA,154231.396,4043.458,N,11156.183,W,1,12,1.0,0.0,M,0.0,M,,*72
$GPGSA,A,3,01,02,03,04,05,06,07,08,09,10,11,12,1.0,1.0,1.0*30
$GPRMC,154231.396,A,4043.458,N,11156.183,W,038.9,268.7,100120,000.0,W*6D
$GPGGA,154232.396,4043.458,N,11156.197,W,1,12,1.0,0.0,M,0.0,M,,*74
$GPGSA,A,3,01,02,03,04,05,06,07,08,09,10,11,12,1.0,1.0,1.0*30
$GPRMC,154232.396,A,4043.458,N,11156.197,W,038.9,268.7,100120,000.0,W*6B
$GPGGA,154233.396,4043.458,N,11156.211,W,1,12,1.0,0.0,M,0.0,M,,*78
$GPGSA,A,3,01,02,03,04,05,06,07,08,09,10,11,12,1.0,1.0,1.0*30
$GPRMC,154233.396,A,4043.458,N,11156.211,W,038.9,268.7,100120,000.0,W*67
$GPGGA,154234.396,4043.458,N,11156.226,W,1,12,1.0,0.0,M,0.0,M,,*7B
$GPGSA,A,3,01,02,03,04,05,06,07,08,09,10,11,12,1.0,1.0,1.0*30
$GPRMC,154234.396,A,4043.458,N,11156.226,W,038.9,268.7,100120,000.0,W*64
$GPGGA,154235.396,4043.457,N,11156.240,W,1,12,1.0,0.0,M,0.0,M,,*75
$GPGSA,A,3,01,02,03,04,05,06,07,08,09,10,11,12,1.0,1.0,1.0*30
$GPRMC,154235.396,A,4043.457,N,11156.240,W,038.9,268.7,100120,000.0,W*6A
$GPGGA,154236.396,4043.457,N,11156.254,W,1,12,1.0,0.0,M,0.0,M,,*73
$GPGSA,A,3,01,02,03,04,05,06,07,08,09,10,11,12,1.0,1.0,1.0*30
$GPRMC,154236.396,A,4043.457,N,11156.254,W,038.9,268.7,100120,000.0,W*6C
$GPGGA,154237.396,4043.457,N,11156.268,W,1,12,1.0,0.0,M,0.0,M,,*7D
$GPGSA,A,3,01,02,03,04,05,06,07,08,09,10,11,12,1.0,1.0,1.0*30
$GPRMC,154237.396,A,4043.457,N,11156.268,W,038.9,268.7,100120,000.0,W*62
$GPGGA,154238.396,4043.456,N,11156.283,W,1,12,1.0,0.0,M,0.0,M,,*76
$GPGSA,A,3,01,02,03,04,05,06,07,08,09,10,11,12,1.0,1.0,1.0*30
$GPRMC,154238.396,A,4043.456,N,11156.283,W,038.9,268.7,100120,000.0,W*69
$GPGGA,154239.396,4043.456,N,11156.297,W,1,12,1.0,0.0,M,0.0,M,,*72
$GPGSA,A,3,01,02,03,04,05,06,07,08,09,10,11,12,1.0,1.0,1.0*30
$GPRMC,154239.396,A,4043.456,N,11156.297,W,038.9,268.7,100120,000.0,W*6D
$GPGGA,154240.396,4043.456,N,11156.311,W,1,12,1.0,0.0,M,0.0,M,,*73
$GPGSA,A,3,01,02,03,04,05,06,07,08,09,10,11,12,1.0,1.0,1.0*30
$GPRMC,154240.396,A,4043.456,N,11156.311,W,038.9,268.7,100120,000.0,W*6C
$GPGGA,154241.396,4043.455,N,11156.325,W,1,12,1.0,0.0,M,0.0,M,,*76
$GPGSA,A,3,01,02,03,04,05,06,07,08,09,10,11,12,1.0,1.0,1.0*30
$GPRMC,154241.396,A,4043.455,N,11156.325,W,038.9,268.7,100120,000.0,W*69
$GPGGA,154242.396,4043.455,N,11156.340,W,1,12,1.0,0.0,M,0.0,M,,*76
$GPGSA,A,3,01,02,03,04,05,06,07,08,09,10,11,12,1.0,1.0,1.0*30
$GPRMC,154242.396,A,4043.455,N,11156.340,W,038.9,268.7,100120,000.0,W*69
$GPGGA,154243.396,4043.455,N,11156.354,W,1,12,1.0,0.0,M,0.0,M,,*72
$GPGSA,A,3,01,02,03,04,05,06,07,08,09,10,11,12,1.0,1.0,1.0*30
$GPRMC,154243.396,A,4043.455,N,11156.354,W,038.9,268.7,100120,000.0,W*6D
$GPGGA,154244.396,4043.454,N,11156.368,W,1,12,1.0,0.0,M,0.0,M,,*7B
$GPGSA,A,3,01,02,03,04,05,06,07,08,09,10,11,12,1.0,1.0,1.0*30
$GPRMC,154244.396,A,4043.454,N,11156.368,W,038.9,268.7,100120,000.0,W*64
$GPGGA,154245.396,4043.454,N,11156.382,W,1,12,1.0,0.0,M,0.0,M,,*7E
$GPGSA,A,3,01,02,03,04,05,06,07,08,09,10,11,12,1.0,1.0,1.0*30
$GPRMC,154245.396,A,4043.454,N,11156.382,W,038.9,268.7,100120,000.0,W*61
$GPGGA,154246.396,4043.454,N,11156.397,W,1,12,1.0,0.0,M,0.0,M,,*79
$GPGSA,A,3,01,02,03,04,05,06,07,08,09,10,11,12,1.0,1.0,1.0*30
$GPRMC,154246.396,A,4043.454,N,11156.397,W,038.9,268.7,100120,000.0,W*66
$GPGGA,154247.396,4043.453,N,11156.411,W,1,12,1.0,0.0,M,0.0,M,,*76
$GPGSA,A,3,01,02,03,04,05,06,07,08,09,10,11,12,1.0,1.0,1.0*30
$GPRMC,154247.396,A,4043.453,N,11156.411,W,038.9,268.7,100120,000.0,W*69
$GPGGA,154248.396,4043.453,N,11156.425,W,1,12,1.0,0.0,M,0.0,M,,*7E
$GPGSA,A,3,01,02,03,04,05,06,07,08,09,10,11,12,1.0,1.0,1.0*30
$GPRMC,154248.396,A,4043.453,N,11156.425,W,038.9,268.7,100120,000.0,W*61
$GPGGA,154249.396,4043.453,N,11156.439,W,1,12,1.0,0.0,M,0.0,M,,*72
$GPGSA,A,3,01,02,03,04,05,06,07,08,09,10,11,12,1.0,1.0,1.0*30
$GPRMC,154249.396,A,4043.453,N,11156.439,W,038.9,268.7,100120,000.0,W*6D
$GPGGA,154250.396,4043.452,N,11156.453,W,1,12,1.0,0.0,M,0.0,M,,*77
$GPGSA,A,3,01,02,03,04,05,06,07,08,09,10,11,12,1.0,1.0,1.0*30
$GPRMC,154250.396,A,4043.452,N,11156.453,W,038.9,268.7,100120,000.0,W*68
$GPGGA,154251.396,4043.452,N,11156.468,W,1,12,1.0,0.0,M,0.0,M,,*7E
$GPGSA,A,3,01,02,03,04,05,06,07,08,09,10,11,12,1.0,1.0,1.0*30
$GPRMC,154251.396,A,4043.452,N,11156.468,W,038.9,268.7,100120,000.0,W*61
$GPGGA,154252.396,4043.452,N,11156.482,W,1,12,1.0,0.0,M,0.0,M,,*79
$GPGSA,A,3,01,02,03,04,05,06,07,08,09,10,11,12,1.0,1.0,1.0*30
$GPRMC,154252.396,A,4043.452,N,11156.482,W,038.9,268.7,100120,000.0,W*66
$GPGGA,154253.396,4043.451,N,11156.496,W,1,12,1.0,0.0,M,0.0,M,,*7E
$GPGSA,A,3,01,02,03,04,05,06,07,08,09,10,11,12,1.0,1.0,1.0*30
$GPRMC,154253.396,A,4043.451,N,11156.496,W,038.9,268.7,100120,000.0,W*61
$GPGGA,154254.396,4043.451,N,11156.510,W,1,12,1.0,0.0,M,0.0,M,,*76
$GPGSA,A,3,01,02,03,04,05,06,07,08,09,10,11,12,1.0,1.0,1.0*30
$GPRMC,154254.396,A,4043.451,N,11156.510,W,038.9,268.7,100120,000.0,W*69
$GPGGA,154255.396,4043.451,N,11156.525,W,1,12,1.0,0.0,M,0.0,M,,*71
$GPGSA,A,3,01,02,03,04,05,06,07,08,09,10,11,12,1.0,1.0,1.0*30
$GPRMC,154255.396,A,4043.451,N,11156.525,W,038.9,268.7,100120,000.0,W*6E
$GPGGA,154256.396,4043.450,N,11156.539,W,1,12,1.0,0.0,M,0.0,M,,*7E
$GPGSA,A,3,01,02,03,04,05,06,07,08,09,10,11,12,1.0,1.0,1.0*30
$GPRMC,154256.396,A,4043.450,N,11156.539,W,038.9,268.7,100120,000.0,W*61
$GPGGA,154257.396,4043.450,N,11156.553,W,1,12,1.0,0.0,M,0.0,M,,*73
$GPGSA,A,3,01,02,03,04,05,06,07,08,09,10,11,12,1.0,1.0,1.0*30
$GPRMC,154257.396,A,4043.450,N,11156.553,W,038.9,277.7,100120,000.0,W*62
$GPGGA,154258.396,4043.452,N,11156.567,W,1,12,1.0,0.0,M,0.0,M,,*79
$GPGSA,A,3,01,02,03,04,05,06,07,08,09,10,11,12,1.0,1.0,1.0*30
$GPRMC,154258.396,A,4043.452,N,11156.567,W,038.9,277.7,100120,000.0,W*68
$GPGGA,154259.396,4043.454,N,11156.581,W,1,12,1.0,0.0,M,0.0,M,,*76
$GPGSA,A,3,01,02,03,04,05,06,07,08,09,10,11,12,1.0,1.0,1.0*30
$GPRMC,154259.396,A,4043.454,N,11156.581,W,038.9,277.7,100120,000.0,W*67
$GPGGA,154300.396,4043.456,N,11156.595,W,1,12,1.0,0.0,M,0.0,M,,*7C
$GPGSA,A,3,01,02,03,04,05,06,07,08,09,10,11,12,1.0,1.0,1.0*30
$GPRMC,154300.396,A,4043.456,N,11156.595,W,038.9,277.7,100120,000.0,W*6D
$GPGGA,154301.396,4043.458,N,11156.609,W,1,12,1.0,0.0,M,0.0,M,,*75
$GPGSA,A,3,01,02,03,04,05,06,07,08,09,10,11,12,1.0,1.0,1.0*30
$GPRMC,154301.396,A,4043.458,N,11156.609,W,038.9,277.7,100120,000.0,W*64
$GPGGA,154302.396,4043.460,N,11156.623,W,1,12,1.0,0.0,M,0.0,M,,*75
$GPGSA,A,3,01,02,03,04,05,06,07,08,09,10,11,12,1.0,1.0,1.0*30
$GPRMC,154302.396,A,4043.460,N,11156.623,W,038.9,277.7,100120,000.0,W*64
$GPGGA,154303.396,4043.462,N,11156.637,W,1,12,1.0,0.0,M,0.0,M,,*73
$GPGSA,A,3,01,02,03,04,05,06,07,08,09,10,11,12,1.0,1.0,1.0*30
$GPRMC,154303.396,A,4043.462,N,11156.637,W,038.9,277.7,100120,000.0,W*62
$GPGGA,154304.396,4043.463,N,11156.651,W,1,12,1.0,0.0,M,0.0,M,,*75
$GPGSA,A,3,01,02,03,04,05,06,07,08,09,10,11,12,1.0,1.0,1.0*30
$GPRMC,154304.396,A,4043.463,N,11156.651,W,038.9,277.7,100120,000.0,W*64
$GPGGA,154305.396,4043.465,N,11156.665,W,1,12,1.0,0.0,M,0.0,M,,*75
$GPGSA,A,3,01,02,03,04,05,06,07,08,09,10,11,12,1.0,1.0,1.0*30
$GPRMC,154305.396,A,4043.465,N,11156.665,W,038.9,277.7,100120,000.0,W*64
$GPGGA,154306.396,4043.467,N,11156.679,W,1,12,1.0,0.0,M,0.0,M,,*79
$GPGSA,A,3,01,02,03,04,05,06,07,08,09,10,11,12,1.0,1.0,1.0*30
$GPRMC,154306.396,A,4043.467,N,11156.679,W,038.9,277.7,100120,000.0,W*68
$GPGGA,154307.396,4043.469,N,11156.693,W,1,12,1.0,0.0,M,0.0,M,,*72
$GPGSA,A,3,01,02,03,04,05,06,07,08,09,10,11,12,1.0,1.0,1.0*30
$GPRMC,154307.396,A,4043.469,N,11156.693,W,038.9,277.7,100120,000.0,W*63
$GPGGA,154308.396,4043.471,N,11156.707,W,1,12,1.0,0.0,M,0.0,M,,*78
$GPGSA,A,3,01,02,03,04,05,06,07,08,09,10,11,12,1.0,1.0,1.0*30
$GPRMC,154308.396,A,4043.471,N,11156.707,W,038.9,277.7,100120,000.0,W*69
$GPGGA,154309.396,4043.473,N,11156.721,W,1,12,1.0,0.0,M,0.0,M,,*7F
$GPGSA,A,3,01,02,03,04,05,06,07,08,09,10,11,12,1.0,1.0,1.0*30
$GPRMC,154309.396,A,4043.473,N,11156.721,W,038.9,277.7,100120,000.0,W*6E
$GPGGA,154310.396,4043.475,N,11156.735,W,1,12,1.0,0.0,M,0.0,M,,*74
$GPGSA,A,3,01,02,03,04,05,06,07,08,09,10,11,12,1.0,1.0,1.0*30
$GPRMC,154310.396,A,4043.475,N,11156.735,W,038.9,277.7,100120,000.0,W*65
$GPGGA,154311.396,4043.477,N,11156.749,W,1,12,1.0,0.0,M,0.0,M,,*7C
$GPGSA,A,3,01,02,03,04,05,06,07,08,09,10,11,12,1.0,1.0,1.0*30
$GPRMC,154311.396,A,4043.477,N,11156.749,W,038.9,277.7,100120,000.0,W*6D
$GPGGA,154312.396,4043.479,N,11156.763,W,1,12,1.0,0.0,M,0.0,M,,*79
$GPGSA,A,3,01,02,03,04,05,06,07,08,09,10,11,12,1.0,1.0,1.0*30
$GPRMC,154312.396,A,4043.479,N,11156.763,W,038.9,277.7,100120,000.0,W*68
$GPGGA,154313.396,4043.480,N,11156.777,W,1,12,1.0,0.0,M,0.0,M,,*7B
$GPGSA,A,3,01,02,03,04,05,06,07,08,09,10,11,12,1.0,1.0,1.0*30
$GPRMC,154313.396,A,4043.480,N,11156.777,W,038.9,277.7,100120,000.0,W*6A
$GPGGA,154314.396,4043.482,N,11156.791,W,1,12,1.0,0.0,M,0.0,M,,*76
$GPGSA,A,3,01,02,03,04,05,06,07,08,09,10,11,12,1.0,1.0,1.0*30
$GPRMC,154314.396,A,4043.482,N,11156.791,W,038.9,277.7,100120,000.0,W*67
$GPGGA,154315.396,4043.484,N,11156.805,W,1,12,1.0,0.0,M,0.0,M,,*73
$GPGSA,A,3,01,02,03,04,05,06,07,08,09,10,11,12,1.0,1.0,1.0*30
$GPRMC,154315.396,A,4043.484,N,11156.805,W,038.9,277.7,100120,000.0,W*62
$GPGGA,154316.396,4043.486,N,11156.819,W,1,12,1.0,0.0,M,0.0,M,,*7F
$GPGSA,A,3,01,02,03,04,05,06,07,08,09,10,11,12,1.0,1.0,1.0*30
$GPRMC,154316.396,A,4043.486,N,11156.819,W,038.9,277.7,100120,000.0,W*6E
$GPGGA,154317.396,4043.488,N,11156.833,W,1,12,1.0,0.0,M,0.0,M,,*78
$GPGSA,A,3,01,02,03,04,05,06,07,08,09,10,11,12,1.0,1.0,1.0*30
$GPRMC,154317.396,A,4043.488,N,11156.833,W,038.9,277.7,100120,000.0,W*69
$GPGGA,154318.396,4043.490,N,11156.847,W,1,12,1.0,0.0,M,0.0,M,,*7D
$GPGSA,A,3,01,02,03,04,05,06,07,08,09,10,11,12,1.0,1.0,1.0*30
$GPRMC,154318.396,A,4043.490,N,11156.847,W,038.9,277.7,100120,000.0,W*6C
$GPGGA,154319.396,4043.492,N,11156.862,W,1,12,1.0,0.0,M,0.0,M,,*79
$GPGSA,A,3,01,02,03,04,05,06,07,08,09,10,11,12,1.0,1.0,1.0*30
$GPRMC,154319.396,A,4043.492,N,11156.862,W,038.9,277.7,100120,000.0,W*68
$GPGGA,154320.396,4043.494,N,11156.876,W,1,12,1.0,0.0,M,0.0,M,,*70
$GPGSA,A,3,01,02,03,04,05,06,07,08,09,10,11,12,1.0,1.0,1.0*30
$GPRMC,154320.396,A,4043.494,N,11156.876,W,038.9,277.7,100120,000.0,W*61
$GPGGA,154321.396,4043.496,N,11156.890,W,1,12,1.0,0.0,M,0.0,M,,*7B
$GPGSA,A,3,01,02,03,04,05,06,07,08,09,10,11,12,1.0,1.0,1.0*30
$GPRMC,154321.396,A,4043.496,N,11156.890,W,038.9,277.7,100120,000.0,W*6A
$GPGGA,154322.396,4043.497,N,11156.904,W,1,12,1.0,0.0,M,0.0,M,,*75
$GPGSA,A,3,01,02,03,04,05,06,07,08,09,10,11,12,1.0,1.0,1.0*30
$GPRMC,154322.396,A,4043.497,N,11156.904,W,038.9,277.7,100120,000.0,W*64
$GPGGA,154323.396,4043.499,N,11156.918,W,1,12,1.0,0.0,M,0.0,M,,*77
$GPGSA,A,3,01,02,03,04,05,06,07,08,09,10,11,12,1.0,1.0,1.0*30
$GPRMC,154323.396,A,4043.499,N,11156.918,W,038.9,277.7,100120,000.0,W*66
$GPGGA,154324.396,4043.501,N,11156.932,W,1,12,1.0,0.0,M,0.0,M,,*78
$GPGSA,A,3,01,02,03,04,05,06,07,08,09,10,11,12,1.0,1.0,1.0*30
$GPRMC,154324.396,A,4043.501,N,11156.932,W,038.9,277.7,100120,000.0,W*69
$GPGGA,154325.396,4043.503,N,11156.946,W,1,12,1.0,0.0,M,0.0,M,,*78
$GPGSA,A,3,01,02,03,04,05,06,07,08,09,10,11,12,1.0,1.0,1.0*30
$GPRMC,154325.396,A,4043.503,N,11156.946,W,038.9,277.7,100120,000.0,W*69
$GPGGA,154326.396,4043.505,N,11156.960,W,1,12,1.0,0.0,M,0.0,M,,*79
$GPGSA,A,3,01,02,03,04,05,06,07,08,09,10,11,12,1.0,1.0,1.0*30
$GPRMC,154326.396,A,4043.505,N,11156.960,W,038.9,277.7,100120,000.0,W*68
$GPGGA,154327.396,4043.507,N,11156.974,W,1,12,1.0,0.0,M,0.0,M,,*7F
$GPGSA,A,3,01,02,03,04,05,06,07,08,09,10,11,12,1.0,1.0,1.0*30
$GPRMC,154327.396,A,4043.507,N,11156.974,W,038.9,277.7,100120,000.0,W*6E
$GPGGA,154328.396,4043.509,N,11156.988,W,1,12,1.0,0.0,M,0.0,M,,*7D
$GPGSA,A,3,01,02,03,04,05,06,07,08,09,10,11,12,1.0,1.0,1.0*30
$GPRMC,154328.396,A,4043.509,N,11156.988,W,038.9,277.7,100120,000.0,W*6C
$GPGGA,154329.396,4043.511,N,11157.002,W,1,12,1.0,0.0,M,0.0,M,,*7F
$GPGSA,A,3,01,02,03,04,05,06,07,08,09,10,11,12,1.0,1.0,1.0*30
$GPRMC,154329.396,A,4043.511,N,11157.002,W,038.9,277.7,100120,000.0,W*6E
$GPGGA,154330.396,4043.513,N,11157.016,W,1,12,1.0,0.0,M,0.0,M,,*70
$GPGSA,A,3,01,02,03,04,05,06,07,08,09,10,11,12,1.0,1.0,1.0*30
$GPRMC,154330.396,A,4043.513,N,11157.016,W,038.9,277.7,100120,000.0,W*61
$GPGGA,154331.396,4043.514,N,11157.030,W,1,12,1.0,0.0,M,0.0,M,,*72
$GPGSA,A,3,01,02,03,04,05,06,07,08,09,10,11,12,1.0,1.0,1.0*30
$GPRMC,154331.396,A,4043.514,N,11157.030,W,038.9,277.7,100120,000.0,W*63
$GPGGA,154332.396,4043.516,N,11157.044,W,1,12,1.0,0.0,M,0.0,M,,*70
$GPGSA,A,3,01,02,03,04,05,06,07,08,09,10,11,12,1.0,1.0,1.0*30
$GPRMC,154332.396,A,4043.516,N,11157.044,W,038.9,277.7,100120,000.0,W*61
$GPGGA,154333.396,4043.518,N,11157.058,W,1,12,1.0,0.0,M,0.0,M,,*72
$GPGSA,A,3,01,02,03,04,05,06,07,08,09,10,11,12,1.0,1.0,1.0*30
$GPRMC,154333.396,A,4043.518,N,11157.058,W,038.9,276.3,100120,000.0,W*66
$GPGGA,154334.396,4043.520,N,11157.072,W,1,12,1.0,0.0,M,0.0,M,,*76
$GPGSA,A,3,01,02,03,04,05,06,07,08,09,10,11,12,1.0,1.0,1.0*30
$GPRMC,154334.396,A,4043.520,N,11157.072,W,038.9,276.3,100120,000.0,W*62
$GPGGA,154335.396,4043.521,N,11157.086,W,1,12,1.0,0.0,M,0.0,M,,*7D
$GPGSA,A,3,01,02,03,04,05,06,07,08,09,10,11,12,1.0,1.0,1.0*30
$GPRMC,154335.396,A,4043.521,N,11157.086,W,038.9,276.3,100120,000.0,W*69
$GPGGA,154336.396,4043.523,N,11157.100,W,1,12,1.0,0.0,M,0.0,M,,*73
$GPGSA,A,3,01,02,03,04,05,06,07,08,09,10,11,12,1.0,1.0,1.0*30
$GPRMC,154336.396,A,4043.523,N,11157.100,W,038.9,276.3,100120,000.0,W*67
$GPGGA,154337.396,4043.525,N,11157.114,W,1,12,1.0,0.0,M,0.0,M,,*71
$GPGSA,A,3,01,02,03,04,05,06,07,08,09,10,11,12,1.0,1.0,1.0*30
$GPRMC,154337.396,A,4043.525,N,11157.114,W,038.9,276.3,100120,000.0,W*65
$GPGGA,154338.396,4043.526,N,11157.128,W,1,12,1.0,0.0,M,0.0,M,,*72
$GPGSA,A,3,01,02,03,04,05,06,07,08,09,10,11,12,1.0,1.0,1.0*30
$GPRMC,154338.396,A,4043.526,N,11157.128,W,038.9,276.3,100120,000.0,W*66
$GPGGA,154339.396,4043.528,N,11157.142,W,1,12,1.0,0.0,M,0.0,M,,*71
$GPGSA,A,3,01,02,03,04,05,06,07,08,09,10,11,12,1.0,1.0,1.0*30
$GPRMC,154339.396,A,4043.528,N,11157.142,W,038.9,276.3,100120,000.0,W*65
$GPGGA,154340.396,4043.529,N,11157.156,W,1,12,1.0,0.0,M,0.0,M,,*7B
$GPGSA,A,3,01,02,03,04,05,06,07,08,09,10,11,12,1.0,1.0,1.0*30
$GPRMC,154340.396,A,4043.529,N,11157.156,W,038.9,276.3,100120,000.0,W*6F
$GPGGA,154341.396,4043.531,N,11157.171,W,1,12,1.0,0.0,M,0.0,M,,*76
$GPGSA,A,3,01,02,03,04,05,06,07,08,09,10,11,12,1.0,1.0,1.0*30
$GPRMC,154341.396,A,4043.531,N,11157.171,W,038.9,276.3,100120,000.0,W*62
$GPGGA,154342.396,4043.532,N,11157.185,W,1,12,1.0,0.0,M,0.0,M,,*7D
$GPGSA,A,3,01,02,03,04,05,06,07,08,09,10,11,12,1.0,1.0,1.0*30
$GPRMC,154342.396,A,4043.532,N,11157.185,W,038.9,276.3,100120,000.0,W*69
$GPGGA,154343.396,4043.534,N,11157.199,W,1,12,1.0,0.0,M,0.0,M,,*77
$GPGSA,A,3,01,02,03,04,05,06,07,08,09,10,11,12,1.0,1.0,1.0*30
$GPRMC,154343.396,A,4043.534,N,11157.199,W,038.9,276.3,100120,000.0,W*63
$GPGGA,154344.396,4043.535,N,11157.213,W,1,12,1.0,0.0,M,0.0,M,,*70
$GPGSA,A,3,01,02,03,04,05,06,07,08,09,10,11,12,1.0,1.0,1.0*30
$GPRMC,154344.396,A,4043.535,N,11157.213,W,038.9,276.3,100120,000.0,W*64
$GPGGA,154345.396,4043.537,N,11157.227,W,1,12,1.0,0.0,M,0.0,M,,*74
$GPGSA,A,3,01,02,03,04,05,06,07,08,09,10,11,12,1.0,1.0,1.0*30
$GPRMC,154345.396,A,4043.537,N,11157.227,W,038.9,276.3,100120,000.0,W*60
$GPGGA,154346.396,4043.539,N,11157.241,W,1,12,1.0,0.0,M,0.0,M,,*79
$GPGSA,A,3,01,02,03,04,05,06,07,08,09,10,11,12,1.0,1.0,1.0*30
$GPRMC,154346.396,A,4043.539,N,11157.241,W,038.9,276.3,100120,000.0,W*6D
$GPGGA,154347.396,4043.540,N,11157.255,W,1,12,1.0,0.0,M,0.0,M,,*73
$GPGSA,A,3,01,02,03,04,05,06,07,08,09,10,11,12,1.0,1.0,1.0*30
$GPRMC,154347.396,A,4043.540,N,11157.255,W,038.9,276.3,100120,000.0,W*67
$GPGGA,154348.396,4043.542,N,11157.269,W,1,12,1.0,0.0,M,0.0,M,,*71
$GPGSA,A,3,01,02,03,04,05,06,07,08,09,10,11,12,1.0,1.0,1.0*30
$GPRMC,154348.396,A,4043.542,N,11157.269,W,038.9,276.3,100120,000.0,W*65
$GPGGA,154349.396,4043.543,N,11157.283,W,1,12,1.0,0.0,M,0.0,M,,*75
$GPGSA,A,3,01,02,03,04,05,06,07,08,09,10,11,12,1.0,1.0,1.0*30
$GPRMC,154349.396,A,4043.543,N,11157.283,W,038.9,276.3,100120,000.0,W*61
$GPGGA,154350.396,4043.545,N,11157.297,W,1,12,1.0,0.0,M,0.0,M,,*7E
$GPGSA,A,3,01,02,03,04,05,06,07,08,09,10,11,12,1.0,1.0,1.0*30
$GPRMC,154350.396,A,4043.545,N,11157.297,W,038.9,276.3,100120,000.0,W*6A
$GPGGA,154351.396,4043.546,N,11157.311,W,1,12,1.0,0.0,M,0.0,M,,*73
$GPGSA,A,3,01,02,03,04,05,06,07,08,09,10,11,12,1.0,1.0,1.0*30
$GPRMC,154351.396,A,4043.546,N,11157.311,W,038.9,276.3,100120,000.0,W*67
$GPGGA,154352.396,4043.548,N,11157.326,W,1,12,1.0,0.0,M,0.0,M,,*7A
$GPGSA,A,3,01,02,03,04,05,06,07,08,09,10,11,12,1.0,1.0,1.0*30
$GPRMC,154352.396,A,4043.548,N,11157.326,W,038.9,276.3,100120,000.0,W*6E
$GPGGA,154353.396,4043.549,N,11157.340,W,1,12,1.0,0.0,M,0.0,M,,*7A
$GPGSA,A,3,01,02,03,04,05,06,07,08,09,10,11,12,1.0,1.0,1.0*30
$GPRMC,154353.396,A,4043.549,N,11157.340,W,038.9,276.3,100120,000.0,W*6E
$GPGGA,154354.396,4043.551,N,11157.354,W,1,12,1.0,0.0,M,0.0,M,,*71
$GPGSA,A,3,01,02,03,04,05,06,07,08,09,10,11,12,1.0,1.0,1.0*30
$GPRMC,154354.396,A,4043.551,N,11157.354,W,038.9,276.3,100120,000.0,W*65
$GPGGA,154355.396,4043.553,N,11157.368,W,1,12,1.0,0.0,M,0.0,M,,*7D
$GPGSA,A,3,01,02,03,04,05,06,07,08,09,10,11,12,1.0,1.0,1.0*30
$GPRMC,154355.396,A,4043.553,N,11157.368,W,038.9,276.3,100120,000.0,W*69
$GPGGA,154356.396,4043.554,N,11157.382,W,1,12,1.0,0.0,M,0.0,M,,*7D
$GPGSA,A,3,01,02,03,04,05,06,07,08,09,10,11,12,1.0,1.0,1.0*30
$GPRMC,154356.396,A,4043.554,N,11157.382,W,038.9,276.3,100120,000.0,W*69
$GPGGA,154357.396,4043.556,N,11157.396,W,1,12,1.0,0.0,M,0.0,M,,*7B
$GPGSA,A,3,01,02,03,04,05,06,07,08,09,10,11,12,1.0,1.0,1.0*30
$GPRMC,154357.396,A,4043.556,N,11157.396,W,038.9,276.3,100120,000.0,W*6F
$GPGGA,154358.396,4043.557,N,11157.410,W,1,12,1.0,0.0,M,0.0,M,,*7C
$GPGSA,A,3,01,02,03,04,05,06,07,08,09,10,11,12,1.0,1.0,1.0*30
$GPRMC,154358.396,A,4043.557,N,11157.410,W,038.9,271.9,100120,000.0,W*65
$GPGGA,154359.396,4043.558,N,11157.424,W,1,12,1.0,0.0,M,0.0,M,,*75
$GPGSA,A,3,01,02,03,04,05,06,07,08,09,10,11,12,1.0,1.0,1.0*30
$GPRMC,154359.396,A,4043.558,N,11157.424,W,038.9,271.9,100120,000.0,W*6C
$GPGGA,154400.396,4043.558,N,11157.439,W,1,12,1.0,0.0,M,0.0,M,,*72
$GPGSA,A,3,01,02,03,04,05,06,07,08,09,10,11,12,1.0,1.0,1.0*30
$GPRMC,154400.396,A,4043.558,N,11157.439,W,038.9,271.9,100120,000.0,W*6B
$GPGGA,154401.396,4043.559,N,11157.453,W,1,12,1.0,0.0,M,0.0,M,,*7E
$GPGSA,A,3,01,02,03,04,05,06,07,08,09,10,11,12,1.0,1.0,1.0*30
$GPRMC,154401.396,A,4043.559,N,11157.453,W,038.9,271.9,100120,000.0,W*67
$GPGGA,154402.396,4043.559,N,11157.467,W,1,12,1.0,0.0,M,0.0,M,,*7A
$GPGSA,A,3,01,02,03,04,05,06,07,08,09,10,11,12,1.0,1.0,1.0*30
$GPRMC,154402.396,A,4043.559,N,11157.467,W,038.9,271.9,100120,000.0,W*63
$GPGGA,154403.396,4043.560,N,11157.481,W,1,12,1.0,0.0,M,0.0,M,,*79
$GPGSA,A,3,01,02,03,04,05,06,07,08,09,10,11,12,1.0,1.0,1.0*30
$GPRMC,154403.396,A,4043.560,N,11157.481,W,038.9,271.9,100120,000.0,W*60
$GPGGA,154404.396,4043.560,N,11157.495,W,1,12,1.0,0.0,M,0.0,M,,*7B
$GPGSA,A,3,01,02,03,04,05,06,07,08,09,10,11,12,1.0,1.0,1.0*30
$GPRMC,154404.396,A,4043.560,N,11157.495,W,038.9,271.9,100120,000.0,W*62
$GPGGA,154405.396,4043.561,N,11157.510,W,1,12,1.0,0.0,M,0.0,M,,*77
$GPGSA,A,3,01,02,03,04,05,06,07,08,09,10,11,12,1.0,1.0,1.0*30
$GPRMC,154405.396,A,4043.561,N,11157.510,W,038.9,271.9,100120,000.0,W*6E
$GPGGA,154406.396,4043.561,N,11157.524,W,1,12,1.0,0.0,M,0.0,M,,*73
$GPGSA,A,3,01,02,03,04,05,06,07,08,09,10,11,12,1.0,1.0,1.0*30
$GPRMC,154406.396,A,4043.561,N,11157.524,W,038.9,271.9,100120,000.0,W*6A
$GPGGA,154407.396,4043.562,N,11157.538,W,1,12,1.0,0.0,M,0.0,M,,*7C
$GPGSA,A,3,01,02,03,04,05,06,07,08,09,10,11,12,1.0,1.0,1.0*30
$GPRMC,154407.396,A,4043.562,N,11157.538,W,038.9,271.9,100120,000.0,W*65
$GPGGA,154408.396,4043.562,N,11157.552,W,1,12,1.0,0.0,M,0.0,M,,*7F
$GPGSA,A,3,01,02,03,04,05,06,07,08,09,10,11,12,1.0,1.0,1.0*30
$GPRMC,154408.396,A,4043.562,N,11157.552,W,038.9,271.9,100120,000.0,W*66
$GPGGA,154409.396,4043.562,N,11157.567,W,1,12,1.0,0.0,M,0.0,M,,*78
$GPGSA,A,3,01,02,03,04,05,06,07,08,09,10,11,12,1.0,1.0,1.0*30
$GPRMC,154409.396,A,4043.562,N,11157.567,W,038.9,271.9,100120,000.0,W*61
$GPGGA,154410.396,4043.563,N,11157.581,W,1,12,1.0,0.0,M,0.0,M,,*79
$GPGSA,A,3,01,02,03,04,05,06,07,08,09,10,11,12,1.0,1.0,1.0*30
$GPRMC,154410.396,A,4043.563,N,11157.581,W,038.9,271.9,100120,000.0,W*60
$GPGGA,154411.396,4043.563,N,11157.595,W,1,12,1.0,0.0,M,0.0,M,,*7D
$GPGSA,A,3,01,02,03,04,05,06,07,08,09,10,11,12,1.0,1.0,1.0*30
$GPRMC,154411.396,A,4043.563,N,11157.595,W,038.9,271.9,100120,000.0,W*64
$GPGGA,154412.396,4043.564,N,11157.609,W,1,12,1.0,0.0,M,0.0,M,,*7F
$GPGSA,A,3,01,02,03,04,05,06,07,08,09,10,11,12,1.0,1.0,1.0*30
$GPRMC,154412.396,A,4043.564,N,11157.609,W,038.9,271.9,100120,000.0,W*66
$GPGGA,154413.396,4043.564,N,11157.623,W,1,12,1.0,0.0,M,0.0,M,,*76
$GPGSA,A,3,01,02,03,04,05,06,07,08,09,10,11,12,1.0,1.0,1.0*30
$GPRMC,154413.396,A,4043.564,N,11157.623,W,038.9,271.9,100120,000.0,W*6F
$GPGGA,154414.396,4043.565,N,11157.638,W,1,12,1.0,0.0,M,0.0,M,,*7A
$GPGSA,A,3,01,02,03,04,05,06,07,08,09,10,11,12,1.0,1.0,1.0*30
$GPRMC,154414.396,A,4043.565,N,11157.638,W,038.9,271.9,100120,000.0,W*63
$GPGGA,154415.396,4043.565,N,11157.652,W,1,12,1.0,0.0,M,0.0,M,,*77
$GPGSA,A,3,01,02,03,04,05,06,07,08,09,10,11,12,1.0,1.0,1.0*30
$GPRMC,154415.396,A,4043.565,N,11157.652,W,038.9,271.9,100120,000.0,W*6E
$GPGGA,154416.396,4043.566,N,11157.666,W,1,12,1.0,0.0,M,0.0,M,,*70
$GPGSA,A,3,01,02,03,04,05,06,07,08,09,10,11,12,1.0,1.0,1.0*30
$GPRMC,154416.396,A,4043.566,N,11157.666,W,038.9,271.9,100120,000.0,W*69
$GPGGA,154417.396,4043.566,N,11157.680,W,1,12,1.0,0.0,M,0.0,M,,*79
$GPGSA,A,3,01,02,03,04,05,06,07,08,09,10,11,12,1.0,1.0,1.0*30
$GPRMC,154417.396,A,4043.566,N,11157.680,W,038.9,271.9,100120,000.0,W*60
$GPGGA,154418.396,4043.567,N,11157.695,W,1,12,1.0,0.0,M,0.0,M,,*73
$GPGSA,A,3,01,02,03,04,05,06,07,08,09,10,11,12,1.0,1.0,1.0*30
$GPRMC,154418.396,A,4043.567,N,11157.695,W,038.9,271.9,100120,000.0,W*6A
$GPGGA,154419.396,4043.567,N,11157.709,W,1,12,1.0,0.0,M,0.0,M,,*76
$GPGSA,A,3,01,02,03,04,05,06,07,08,09,10,11,12,1.0,1.0,1.0*30
$GPRMC,154419.396,A,4043.567,N,11157.709,W,038.9,277.1,100120,000.0,W*61
$GPGGA,154420.396,4043.569,N,11157.723,W,1,12,1.0,0.0,M,0.0,M,,*7A
$GPGSA,A,3,01,02,03,04,05,06,07,08,09,10,11,12,1.0,1.0,1.0*30
$GPRMC,154420.396,A,4043.569,N,11157.723,W,038.9,277.1,100120,000.0,W*6D
$GPGGA,154421.396,4043.571,N,11157.737,W,1,12,1.0,0.0,M,0.0,M,,*77
$GPGSA,A,3,01,02,03,04,05,06,07,08,09,10,11,12,1.0,1.0,1.0*30
$GPRMC,154421.396,A,4043.571,N,11157.737,W,038.9,277.1,100120,000.0,W*60
$GPGGA,154422.396,4043.572,N,11157.751,W,1,12,1.0,0.0,M,0.0,M,,*77
$GPGSA,A,3,01,02,03,04,05,06,07,08,09,10,11,12,1.0,1.0,1.0*30
$GPRMC,154422.396,A,4043.572,N,11157.751,W,038.9,277.1,100120,000.0,W*60
$GPGGA,154423.396,4043.574,N,11157.765,W,1,12,1.0,0.0,M,0.0,M,,*77
$GPGSA,A,3,01,02,03,04,05,06,07,08,09,10,11,12,1.0,1.0,1.0*30
$GPRMC,154423.396,A,4043.574,N,11157.765,W,038.9,277.1,100120,000.0,W*60
$GPGGA,154424.396,4043.576,N,11157.779,W,1,12,1.0,0.0,M,0.0,M,,*7F
$GPGSA,A,3,01,02,03,04,05,06,07,08,09,10,11,12,1.0,1.0,1.0*30
$GPRMC,154424.396,A,4043.576,N,11157.779,W,038.9,277.1,100120,000.0,W*68
$GPGGA,154425.396,4043.578,N,11157.793,W,1,12,1.0,0.0,M,0.0,M,,*74
$GPGSA,A,3,01,02,03,04,05,06,07,08,09,10,11,12,1.0,1.0,1.0*30
$GPRMC,154425.396,A,4043.578,N,11157.793,W,038.9,277.1,100120,000.0,W*63
$GPGGA,154426.396,4043.579,N,11157.807,W,1,12,1.0,0.0,M,0.0,M,,*74
$GPGSA,A,3,01,02,03,04,05,06,07,08,09,10,11,12,1.0,1.0,1.0*30
$GPRMC,154426.396,A,4043.579,N,11157.807,W,038.9,277.1,100120,000.0,W*63
$GPGGA,154427.396,4043.581,N,11157.821,W,1,12,1.0,0.0,M,0.0,M,,*76
$GPGSA,A,3,01,02,03,04,05,06,07,08,09,10,11,12,1.0,1.0,1.0*30
$GPRMC,154427.396,A,4043.581,N,11157.821,W,038.9,277.1,100120,000.0,W*61
$GPGGA,154428.396,4043.583,N,11157.835,W,1,12,1.0,0.0,M,0.0,M,,*7E
$GPGSA,A,3,01,02,03,04,05,06,07,08,09,10,11,12,1.0,1.0,1.0*30
$GPRMC,154428.396,A,4043.583,N,11157.835,W,038.9,277.1,100120,000.0,W*69
$GPGGA,154429.396,4043.585,N,11157.849,W,1,12,1.0,0.0,M,0.0,M,,*72
$GPGSA,A,3,01,02,03,04,05,06,07,08,09,10,11,12,1.0,1.0,1.0*30
$GPRMC,154429.396,A,4043.585,N,11157.849,W,038.9,277.1,100120,000.0,W*65
$GPGGA,154430.396,4043.586,N,11157.863,W,1,12,1.0,0.0,M,0.0,M,,*71
$GPGSA,A,3,01,02,03,04,05,06,07,08,09,10,11,12,1.0,1.0,1.0*30
$GPRMC,154430.396,A,4043.586,N,11157.863,W,038.9,277.1,100120,000.0,W*66
$GPGGA,154431.396,4043.588,N,11157.877,W,1,12,1.0,0.0,M,0.0,M,,*7B
$GPGSA,A,3,01,02,03,04,05,06,07,08,09,10,11,12,1.0,1.0,1.0*30
$GPRMC,154431.396,A,4043.588,N,11157.877,W,038.9,277.1,100120,000.0,W*6C
$GPGGA,154432.396,4043.590,N,11157.892,W,1,12,1.0,0.0,M,0.0,M,,*7A
$GPGSA,A,3,01,02,03,04,05,06,07,08,09,10,11,12,1.0,1.0,1.0*30
$GPRMC,154432.396,A,4043.590,N,11157.892,W,038.9,277.1,100120,000.0,W*6D
$GPGGA,154433.396,4043.592,N,11157.906,W,1,12,1.0,0.0,M,0.0,M,,*75
$GPGSA,A,3,01,02,03,04,05,06,07,08,09,10,11,12,1.0,1.0,1.0*30
$GPRMC,154433.396,A,4043.592,N,11157.906,W,038.9,277.1,100120,000.0,W*62
$GPGGA,154434.396,4043.593,N,11157.920,W,1,12,1.0,0.0,M,0.0,M,,*77
$GPGSA,A,3,01,02,03,04,05,06,07,08,09,10,11,12,1.0,1.0,1.0*30
$GPRMC,154434.396,A,4043.593,N,11157.920,W,038.9,277.1,100120,000.0,W*60
$GPGGA,154435.396,4043.595,N,11157.934,W,1,12,1.0,0.0,M,0.0,M,,*75
$GPGSA,A,3,01,02,03,04,05,06,07,08,09,10,11,12,1.0,1.0,1.0*30
$GPRMC,154435.396,A,4043.595,N,11157.934,W,038.9,277.1,100120,000.0,W*62
$GPGGA,154436.396,4043.597,N,11157.948,W,1,12,1.0,0.0,M,0.0,M,,*7F
$GPGSA,A,3,01,02,03,04,05,06,07,08,09,10,11,12,1.0,1.0,1.0*30
$GPRMC,154436.396,A,4043.597,N,11157.948,W,038.9,277.1,100120,000.0,W*68
$GPGGA,154437.396,4043.599,N,11157.962,W,1,12,1.0,0.0,M,0.0,M,,*78
$GPGSA,A,3,01,02,03,04,05,06,07,08,09,10,11,12,1.0,1.0,1.0*30
$GPRMC,154437.396,A,4043.599,N,11157.962,W,038.9,277.1,100120,000.0,W*6F
$GPGGA,154438.396,4043.600,N,11157.976,W,1,12,1.0,0.0,M,0.0,M,,*71
$GPGSA,A,3,01,02,03,04,05,06,07,08,09,10,11,12,1.0,1.0,1.0*30
$GPRMC,154438.396,A,4043.600,N,11157.976,W,038.9,277.1,100120,000.0,W*66
$GPGGA,154439.396,4043.602,N,11157.990,W,1,12,1.0,0.0,M,0.0,M,,*7A
$GPGSA,A,3,01,02,03,04,05,06,07,08,09,10,11,12,1.0,1.0,1.0*30
$GPRMC,154439.396,A,4043.602,N,11157.990,W,038.9,277.1,100120,000.0,W*6D
$GPGGA,154440.396,4043.604,N,11158.004,W,1,12,1.0,0.0,M,0.0,M,,*79
$GPGSA,A,3,01,02,03,04,05,06,07,08,09,10,11,12,1.0,1.0,1.0*30
$GPRMC,154440.396,A,4043.604,N,11158.004,W,038.9,277.1,100120,000.0,W*6E
$GPGGA,154441.396,4043.606,N,11158.018,W,1,12,1.0,0.0,M,0.0,M,,*77
$GPGSA,A,3,01,02,03,04,05,06,07,08,09,10,11,12,1.0,1.0,1.0*30
$GPRMC,154441.396,A,4043.606,N,11158.018,W,038.9,277.1,100120,000.0,W*60
$GPGGA,154442.396,4043.607,N,11158.032,W,1,12,1.0,0.0,M,0.0,M,,*7D
$GPGSA,A,3,01,02,03,04,05,06,07,08,09,10,11,12,1.0,1.0,1.0*30
$GPRMC,154442.396,A,4043.607,N,11158.032,W,038.9,277.1,100120,000.0,W*6A
$GPGGA,154443.396,4043.609,N,11158.046,W,1,12,1.0,0.0,M,0.0,M,,*71
$GPGSA,A,3,01,02,03,04,05,06,07,08,09,10,11,12,1.0,1.0,1.0*30
$GPRMC,154443.396,A,4043.609,N,11158.046,W,038.9,277.1,100120,000.0,W*66
$GPGGA,154444.396,4043.611,N,11158.060,W,1,12,1.0,0.0,M,0.0,M,,*7B
$GPGSA,A,3,01,02,03,04,05,06,07,08,09,10,11,12,1.0,1.0,1.0*30
$GPRMC,154444.396,A,4043.611,N,11158.060,W,038.9,266.8,100120,000.0,W*65
$GPGGA,154445.396,4043.610,N,11158.074,W,1,12,1.0,0.0,M,0.0,M,,*7E
$GPGSA,A,3,01,02,03,04,05,06,07,08,09,10,11,12,1.0,1.0,1.0*30
$GPRMC,154445.396,A,4043.610,N,11158.074,W,038.9,266.8,100120,000.0,W*60
$GPGGA,154446.396,4043.609,N,11158.089,W,1,12,1.0,0.0,M,0.0,M,,*77
$GPGSA,A,3,01,02,03,04,05,06,07,08,09,10,11,12,1.0,1.0,1.0*30
$GPRMC,154446.396,A,4043.609,N,11158.089,W,038.9,266.8,100120,000.0,W*69
$GPGGA,154447.396,4043.608,N,11158.103,W,1,12,1.0,0.0,M,0.0,M,,*74
$GPGSA,A,3,01,02,03,04,05,06,07,08,09,10,11,12,1.0,1.0,1.0*30
$GPRMC,154447.396,A,4043.608,N,11158.103,W,038.9,266.8,100120,000.0,W*6A
$GPGGA,154448.396,4043.608,N,11158.117,W,1,12,1.0,0.0,M,0.0,M,,*7E
$GPGSA,A,3,01,02,03,04,05,06,07,08,09,10,11,12,1.0,1.0,1.0*30
$GPRMC,154448.396,A,4043.608,N,11158.117,W,038.9,266.8,100120,000.0,W*60
$GPGGA,154449.396,4043.607,N,11158.131,W,1,12,1.0,0.0,M,0.0,M,,*74
$GPGSA,A,3,01,02,03,04,05,06,07,08,09,10,11,12,1.0,1.0,1.0*30
$GPRMC,154449.396,A,4043.607,N,11158.131,W,038.9,266.8,100120,000.0,W*6A
$GPGGA,154450.396,4043.606,N,11158.145,W,1,12,1.0,0.0,M,0.0,M,,*7E
$GPGSA,A,3,01,02,03,04,05,06,07,08,09,10,11,12,1.0,1.0,1.0*30
$GPRMC,154450.396,A,4043.606,N,11158.145,W,038.9,266.8,100120,000.0,W*60
$GPGGA,154451.396,4043.605,N,11158.160,W,1,12,1.0,0.0,M,0.0,M,,*7B
$GPGSA,A,3,01,02,03,04,05,06,07,08,09,10,11,12,1.0,1.0,1.0*30
$GPRMC,154451.396,A,4043.605,N,11158.160,W,038.9,266.8,100120,000.0,W*65
$GPGGA,154452.396,4043.604,N,11158.174,W,1,12,1.0,0.0,M,0.0,M,,*7C
$GPGSA,A,3,01,02,03,04,05,06,07,08,09,10,11,12,1.0,1.0,1.0*30
$GPRMC,154452.396,A,4043.604,N,11158.174,W,038.9,266.8,100120,000.0,W*62
$GPGGA,154453.396,4043.604,N,11158.188,W,1,12,1.0,0.0,M,0.0,M,,*7E
$GPGSA,A,3,01,02,03,04,05,06,07,08,09,10,11,12,1.0,1.0,1.0*30
$GPRMC,154453.396,A,4043.604,N,11158.188,W,038.9,266.8,100120,000.0,W*60
$GPGGA,154454.396,4043.603,N,11158.202,W,1,12,1.0,0.0,M,0.0,M,,*7F
$GPGSA,A,3,01,02,03,04,05,06,07,08,09,10,11,12,1.0,1.0,1.0*30
$GPRMC,154454.396,A,4043.603,N,11158.202,W,038.9,266.8,100120,000.0,W*61
$GPGGA,154455.396,4043.602,N,11158.216,W,1,12,1.0,0.0,M,0.0,M,,*7A
$GPGSA,A,3,01,02,03,04,05,06,07,08,09,10,11,12,1.0,1.0,1.0*30
$GPRMC,154455.396,A,4043.602,N,11158.216,W,038.9,266.8,100120,000.0,W*64
$GPGGA,154456.396,4043.601,N,11158.231,W,1,12,1.0,0.0,M,0.0,M,,*7F
$GPGSA,A,3,01,02,03,04,05,06,07,08,09,10,11,12,1.0,1.0,1.0*30
$GPRMC,154456.396,A,4043.601,N,11158.231,W,038.9,266.8,100120,000.0,W*61
$GPGGA,154457.396,4043.600,N,11158.245,W,1,12,1.0,0.0,M,0.0,M,,*7C
$GPGSA,A,3,01,02,03,04,05,06,07,08,09,10,11,12,1.0,1.0,1.0*30
$GPRMC,154457.396,A,4043.600,N,11158.245,W,038.9,266.8,100120,000.0,W*62
$GPGGA,154458.396,4043.600,N,11158.259,W,1,12,1.0,0.0,M,0.0,M,,*7E
$GPGSA,A,3,01,02,03,04,05,06,07,08,09,10,11,12,1.0,1.0,1.0*30
$GPRMC,154458.396,A,4043.600,N,11158.259,W,038.9,266.8,100120,000.0,W*60
$GPGGA,154459.396,4043.599,N,11158.273,W,1,12,1.0,0.0,M,0.0,M,,*74
$GPGSA,A,3,01,02,03,04,05,06,07,08,09,10,11,12,1.0,1.0,1.0*30
$GPRMC,154459.396,A,4043.599,N,11158.273,W,038.9,266.8,100120,000.0,W*6A
$GPGGA,154500.396,4043.598,N,11158.287,W,1,12,1.0,0.0,M,0.0,M,,*73
$GPGSA,A,3,01,02,03,04,05,06,07,08,09,10,11,12,1.0,1.0,1.0*30
$GPRMC,154500.396,A,4043.598,N,11158.287,W,038.9,266.8,100120,000.0,W*6D
$GPGGA,154501.396,4043.597,N,11158.302,W,1,12,1.0,0.0,M,0.0,M,,*71
$GPGSA,A,3,01,02,03,04,05,06,07,08,09,10,11,12,1.0,1.0,1.0*30
$GPRMC,154501.396,A,4043.597,N,11158.302,W,038.9,266.8,100120,000.0,W*6F
$GPGGA,154502.396,4043.596,N,11158.316,W,1,12,1.0,0.0,M,0.0,M,,*76
$GPGSA,A,3,01,02,03,04,05,06,07,08,09,10,11,12,1.0,1.0,1.0*30
$GPRMC,154502.396,A,4043.596,N,11158.316,W,038.9,266.8,100120,000.0,W*68
$GPGGA,154503.396,4043.596,N,11158.330,W,1,12,1.0,0.0,M,0.0,M,,*73
$GPGSA,A,3,01,02,03,04,05,06,07,08,09,10,11,12,1.0,1.0,1.0*30
$GPRMC,154503.396,A,4043.596,N,11158.330,W,038.9,266.8,100120,000.0,W*6D
$GPGGA,154504.396,4043.595,N,11158.344,W,1,12,1.0,0.0,M,0.0,M,,*74
$GPGSA,A,3,01,02,03,04,05,06,07,08,09,10,11,12,1.0,1.0,1.0*30
$GPRMC,154504.396,A,4043.595,N,11158.344,W,038.9,266.8,100120,000.0,W*6A
$GPGGA,154505.396,4043.594,N,11158.358,W,1,12,1.0,0.0,M,0.0,M,,*79
$GPGSA,A,3,01,02,03,04,05,06,07,08,09,10,11,12,1.0,1.0,1.0*30
$GPRMC,154505.396,A,4043.594,N,11158.358,W,038.9,266.8,100120,000.0,W*67
$GPGGA,154506.396,4043.593,N,11158.373,W,1,12,1.0,0.0,M,0.0,M,,*74
$GPGSA,A,3,01,02,03,04,05,06,07,08,09,10,11,12,1.0,1.0,1.0*30
$GPRMC,154506.396,A,4043.593,N,11158.373,W,038.9,266.8,100120,000.0,W*6A
$GPGGA,154507.396,4043.592,N,11158.387,W,1,12,1.0,0.0,M,0.0,M,,*7F
$GPGSA,A,3,01,02,03,04,05,06,07,08,09,10,11,12,1.0,1.0,1.0*30
$GPRMC,154507.396,A,4043.592,N,11158.387,W,038.9,266.8,100120,000.0,W*61
$GPGGA,154508.396,4043.592,N,11158.401,W,1,12,1.0,0.0,M,0.0,M,,*79
$GPGSA,A,3,01,02,03,04,05,06,07,08,09,10,11,12,1.0,1.0,1.0*30
$GPRMC,154508.396,A,4043.592,N,11158.401,W,038.9,266.8,100120,000.0,W*67
$GPGGA,154509.396,4043.591,N,11158.415,W,1,12,1.0,0.0,M,0.0,M,,*7E
$GPGSA,A,3,01,02,03,04,05,06,07,08,09,10,11,12,1.0,1.0,1.0*30
$GPRMC,154509.396,A,4043.591,N,11158.415,W,038.9,266.8,100120,000.0,W*60
$GPGGA,154510.396,4043.590,N,11158.429,W,1,12,1.0,0.0,M,0.0,M,,*78
$GPGSA,A,3,01,02,03,04,05,06,07,08,09,10,11,12,1.0,1.0,1.0*30
$GPRMC,154510.396,A,4043.590,N,11158.429,W,038.9,266.8,100120,000.0,W*66
$GPGGA,154511.396,4043.589,N,11158.444,W,1,12,1.0,0.0,M,0.0,M,,*7A
$GPGSA,A,3,01,02,03,04,05,06,07,08,09,10,11,12,1.0,1.0,1.0*30
$GPRMC,154511.396,A,4043.589,N,11158.444,W,038.9,266.8,100120,000.0,W*64
$GPGGA,154512.396,4043.588,N,11158.458,W,1,12,1.0,0.0,M,0.0,M,,*75
$GPGSA,A,3,01,02,03,04,05,06,07,08,09,10,11,12,1.0,1.0,1.0*30
$GPRMC,154512.396,A,4043.588,N,11158.458,W,038.9,266.8,100120,000.0,W*6B
$GPGGA,154513.396,4043.588,N,11158.472,W,1,12,1.0,0.0,M,0.0,M,,*7C
$GPGSA,A,3,01,02,03,04,05,06,07,08,09,10,11,12,1.0,1.0,1.0*30
$GPRMC,154513.396,A,4043.588,N,11158.472,W,038.9,266.8,100120,000.0,W*62
$GPGGA,154514.396,4043.587,N,11158.486,W,1,12,1.0,0.0,M,0.0,M,,*7F
$GPGSA,A,3,01,02,03,04,05,06,07,08,09,10,11,12,1.0,1.0,1.0*30
$GPRMC,154514.396,A,4043.587,N,11158.486,W,038.9,266.3,100120,000.0,W*6A
$GPGGA,154515.396,4043.586,N,11158.500,W,1,12,1.0,0.0,M,0.0,M,,*70
$GPGSA,A,3,01,02,03,04,05,06,07,08,09,10,11,12,1.0,1.0,1.0*30
$GPRMC,154515.396,A,4043.586,N,11158.500,W,038.9,266.3,100120,000.0,W*65
$GPGGA,154516.396,4043.585,N,11158.515,W,1,12,1.0,0.0,M,0.0,M,,*74
$GPGSA,A,3,01,02,03,04,05,06,07,08,09,10,11,12,1.0,1.0,1.0*30
$GPRMC,154516.396,A,4043.585,N,11158.515,W,038.9,266.3,100120,000.0,W*61
$GPGGA,154517.396,4043.584,N,11158.529,W,1,12,1.0,0.0,M,0.0,M,,*7B
$GPGSA,A,3,01,02,03,04,05,06,07,08,09,10,11,12,1.0,1.0,1.0*30
$GPRMC,154517.396,A,4043.584,N,11158.529,W,038.9,266.3,100120,000.0,W*6E
$GPGGA,154518.396,4043.583,N,11158.543,W,1,12,1.0,0.0,M,0.0,M,,*7F
$GPGSA,A,3,01,02,03,04,05,06,07,08,09,10,11,12,1.0,1.0,1.0*30
$GPRMC,154518.396,A,4043.583,N,11158.543,W,038.9,266.3,100120,000.0,W*6A
$GPGGA,154519.396,4043.582,N,11158.557,W,1,12,1.0,0.0,M,0.0,M,,*7A
$GPGSA,A,3,01,02,03,04,05,06,07,08,09,10,11,12,1.0,1.0,1.0*30
$GPRMC,154519.396,A,4043.582,N,11158.557,W,038.9,266.3,100120,000.0,W*6F
$GPGGA,154520.396,4043.581,N,11158.571,W,1,12,1.0,0.0,M,0.0,M,,*77
$GPGSA,A,3,01,02,03,04,05,06,07,08,09,10,11,12,1.0,1.0,1.0*30
$GPRMC,154520.396,A,4043.581,N,11158.571,W,038.9,266.3,100120,000.0,W*62
$GPGGA,154521.396,4043.580,N,11158.586,W,1,12,1.0,0.0,M,0.0,M,,*7F
$GPGSA,A,3,01,02,03,04,05,06,07,08,09,10,11,12,1.0,1.0,1.0*30
$GPRMC,154521.396,A,4043.580,N,11158.586,W,038.9,266.3,100120,000.0,W*6A
$GPGGA,154522.396,4043.580,N,11158.600,W,1,12,1.0,0.0,M,0.0,M,,*71
$GPGSA,A,3,01,02,03,04,05,06,07,08,09,10,11,12,1.0,1.0,1.0*30
$GPRMC,154522.396,A,4043.580,N,11158.600,W,038.9,266.3,100120,000.0,W*64
$GPGGA,154523.396,4043.579,N,11158.614,W,1,12,1.0,0.0,M,0.0,M,,*73
$GPGSA,A,3,01,02,03,04,05,06,07,08,09,10,11,12,1.0,1.0,1.0*30
$GPRMC,154523.396,A,4043.579,N,11158.614,W,038.9,266.3,100120,000.0,W*66
$GPGGA,154524.396,4043.578,N,11158.628,W,1,12,1.0,0.0,M,0.0,M,,*7A
$GPGSA,A,3,01,02,03,04,05,06,07,08,09,10,11,12,1.0,1.0,1.0*30
$GPRMC,154524.396,A,4043.578,N,11158.628,W,038.9,266.3,100120,000.0,W*6F
$GPGGA,154525.396,4043.577,N,11158.642,W,1,12,1.0,0.0,M,0.0,M,,*78
$GPGSA,A,3,01,02,03,04,05,06,07,08,09,10,11,12,1.0,1.0,1.0*30
$GPRMC,154525.396,A,4043.577,N,11158.642,W,038.9,266.3,100120,000.0,W*6D
$GPGGA,154526.396,4043.576,N,11158.656,W,1,12,1.0,0.0,M,0.0,M,,*7F
$GPGSA,A,3,01,02,03,04,05,06,07,08,09,10,11,12,1.0,1.0,1.0*30
$GPRMC,154526.396,A,4043.576,N,11158.656,W,038.9,266.3,100120,000.0,W*6A
$GPGGA,154527.396,4043.575,N,11158.671,W,1,12,1.0,0.0,M,0.0,M,,*78
$GPGSA,A,3,01,02,03,04,05,06,07,08,09,10,11,12,1.0,1.0,1.0*30
$GPRMC,154527.396,A,4043.575,N,11158.671,W,038.9,266.3,100120,000.0,W*6D
$GPGGA,154528.396,4043.574,N,11158.685,W,1,12,1.0,0.0,M,0.0,M,,*7D
$GPGSA,A,3,01,02,03,04,05,06,07,08,09,10,11,12,1.0,1.0,1.0*30
$GPRMC,154528.396,A,4043.574,N,11158.685,W,038.9,266.3,100120,000.0,W*68
$GPGGA,154529.396,4043.573,N,11158.699,W,1,12,1.0,0.0,M,0.0,M,,*76
$GPGSA,A,3,01,02,03,04,05,06,07,08,09,10,11,12,1.0,1.0,1.0*30
$GPRMC,154529.396,A,4043.573,N,11158.699,W,038.9,266.3,100120,000.0,W*63
$GPGGA,154530.396,4043.572,N,11158.713,W,1,12,1.0,0.0,M,0.0,M,,*7C
$GPGSA,A,3,01,02,03,04,05,06,07,08,09,10,11,12,1.0,1.0,1.0*30
$GPRMC,154530.396,A,4043.572,N,11158.713,W,038.9,266.3,100120,000.0,W*69
$GPGGA,154531.396,4043.571,N,11158.727,W,1,12,1.0,0.0,M,0.0,M,,*79
$GPGSA,A,3,01,02,03,04,05,06,07,08,09,10,11,12,1.0,1.0,1.0*30
$GPRMC,154531.396,A,4043.571,N,11158.727,W,038.9,266.3,100120,000.0,W*6C
$GPGGA,154532.396,4043.571,N,11158.742,W,1,12,1.0,0.0,M,0.0,M,,*79
$GPGSA,A,3,01,02,03,04,05,06,07,08,09,10,11,12,1.0,1.0,1.0*30
$GPRMC,154532.396,A,4043.571,N,11158.742,W,038.9,266.3,100120,000.0,W*6C
$GPGGA,154533.396,4043.570,N,11158.756,W,1,12,1.0,0.0,M,0.0,M,,*7C
$GPGSA,A,3,01,02,03,04,05,06,07,08,09,10,11,12,1.0,1.0,1.0*30
$GPRMC,154533.396,A,4043.570,N,11158.756,W,038.9,266.3,100120,000.0,W*69
$GPGGA,154534.396,4043.569,N,11158.770,W,1,12,1.0,0.0,M,0.0,M,,*77
$GPGSA,A,3,01,02,03,04,05,06,07,08,09,10,11,12,1.0,1.0,1.0*30
$GPRMC,154534.396,A,4043.569,N,11158.770,W,038.9,266.3,100120,000.0,W*62
$GPGGA,154535.396,4043.568,N,11158.784,W,1,12,1.0,0.0,M,0.0,M,,*7C
$GPGSA,A,3,01,02,03,04,05,06,07,08,09,10,11,12,1.0,1.0,1.0*30
$GPRMC,154535.396,A,4043.568,N,11158.784,W,038.9,266.3,100120,000.0,W*69
$GPGGA,154536.396,4043.567,N,11158.798,W,1,12,1.0,0.0,M,0.0,M,,*7D
$GPGSA,A,3,01,02,03,04,05,06,07,08,09,10,11,12,1.0,1.0,1.0*30
$GPRMC,154536.396,A,4043.567,N,11158.798,W,038.9,266.3,100120,000.0,W*68
$GPGGA,154537.396,4043.566,N,11158.813,W,1,12,1.0,0.0,M,0.0,M,,*71
$GPGSA,A,3,01,02,03,04,05,06,07,08,09,10,11,12,1.0,1.0,1.0*30
$GPRMC,154537.396,A,4043.566,N,11158.813,W,038.9,266.3,100120,000.0,W*64
$GPGGA,154538.396,4043.565,N,11158.827,W,1,12,1.0,0.0,M,0.0,M,,*7A
$GPGSA,A,3,01,02,03,04,05,06,07,08,09,10,11,12,1.0,1.0,1.0*30
$GPRMC,154538.396,A,4043.565,N,11158.827,W,038.9,266.3,100120,000.0,W*6F
$GPGGA,154539.396,4043.564,N,11158.841,W,1,12,1.0,0.0,M,0.0,M,,*7A
$GPGSA,A,3,01,02,03,04,05,06,07,08,09,10,11,12,1.0,1.0,1.0*30
$GPRMC,154539.396,A,4043.564,N,11158.841,W,038.9,269.0,100120,000.0,W*63
$GPGGA,154540.396,4043.564,N,11158.855,W,1,12,1.0,0.0,M,0.0,M,,*71
$GPGSA,A,3,01,02,03,04,05,06,07,08,09,10,11,12,1.0,1.0,1.0*30
$GPRMC,154540.396,A,4043.564,N,11158.855,W,038.9,269.0,100120,000.0,W*68
$GPGGA,154541.396,4043.564,N,11158.869,W,1,12,1.0,0.0,M,0.0,M,,*7F
$GPGSA,A,3,01,02,03,04,05,06,07,08,09,10,11,12,1.0,1.0,1.0*30
$GPRMC,154541.396,A,4043.564,N,11158.869,W,038.9,269.0,100120,000.0,W*66
$GPGGA,154542.396,4043.563,N,11158.884,W,1,12,1.0,0.0,M,0.0,M,,*78
$GPGSA,A,3,01,02,03,04,05,06,07,08,09,10,11,12,1.0,1.0,1.0*30
$GPRMC,154542.396,A,4043.563,N,11158.884,W,038.9,269.0,100120,000.0,W*61
$GPGGA,154543.396,4043.563,N,11158.898,W,1,12,1.0,0.0,M,0.0,M,,*74
$GPGSA,A,3,01,02,03,04,05,06,07,08,09,10,11,12,1.0,1.0,1.0*30
$GPRMC,154543.396,A,4043.563,N,11158.898,W,038.9,269.0,100120,000.0,W*6D
$GPGGA,154544.396,4043.563,N,11158.912,W,1,12,1.0,0.0,M,0.0,M,,*70
$GPGSA,A,3,01,02,03,04,05,06,07,08,09,10,11,12,1.0,1.0,1.0*30
$GPRMC,154544.396,A,4043.563,N,11158.912,W,038.9,269.0,100120,000.0,W*69
$GPGGA,154545.396,4043.563,N,11158.926,W,1,12,1.0,0.0,M,0.0,M,,*76
$GPGSA,A,3,01,02,03,04,05,06,07,08,09,10,11,12,1.0,1.0,1.0*30
$GPRMC,154545.396,A,4043.563,N,11158.926,W,038.9,269.0,100120,000.0,W*6F
$GPGGA,154546.396,4043.562,N,11158.941,W,1,12,1.0,0.0,M,0.0,M,,*75
$GPGSA,A,3,01,02,03,04,05,06,07,08,09,10,11,12,1.0,1.0,1.0*30
$GPRMC,154546.396,A,4043.562,N,11158.941,W,038.9,269.0,100120,000.0,W*6C
$GPGGA,154547.396,4043.562,N,11158.955,W,1,12,1.0,0.0,M,0.0,M,,*71
$GPGSA,A,3,01,02,03,04,05,06,07,08,09,10,11,12,1.0,1.0,1.0*30
$GPRMC,154547.396,A,4043.562,N,11158.955,W,038.9,269.0,100120,000.0,W*68
$GPGGA,154548.396,4043.562,N,11158.969,W,1,12,1.0,0.0,M,0.0,M,,*71
$GPGSA,A,3,01,02,03,04,05,06,07,08,09,10,11,12,1.0,1.0,1.0*30
$GPRMC,154548.396,A,4043.562,N,11158.969,W,038.9,269.0,100120,000.0,W*68
$GPGGA,154549.396,4043.562,N,11158.983,W,1,12,1.0,0.0,M,0.0,M,,*74
$GPGSA,A,3,01,02,03,04,05,06,07,08,09,10,11,12,1.0,1.0,1.0*30
$GPRMC,154549.396,A,4043.562,N,11158.983,W,038.9,269.0,100120,000.0,W*6D
$GPGGA,154550.396,4043.561,N,11158.998,W,1,12,1.0,0.0,M,0.0,M,,*75
$GPGSA,A,3,01,02,03,04,05,06,07,08,09,10,11,12,1.0,1.0,1.0*30
$GPRMC,154550.396,A,4043.561,N,11158.998,W,038.9,269.0,100120,000.0,W*6C
$GPGGA,154551.396,4043.561,N,11159.012,W,1,12,1.0,0.0,M,0.0,M,,*7E
$GPGSA,A,3,01,02,03,04,05,06,07,08,09,10,11,12,1.0,1.0,1.0*30
$GPRMC,154551.396,A,4043.561,N,11159.012,W,038.9,269.0,100120,000.0,W*67
$GPGGA,154552.396,4043.561,N,11159.026,W,1,12,1.0,0.0,M,0.0,M,,*7A
$GPGSA,A,3,01,02,03,04,05,06,07,08,09,10,11,12,1.0,1.0,1.0*30
$GPRMC,154552.396,A,4043.561,N,11159.026,W,038.9,269.0,100120,000.0,W*63
$GPGGA,154553.396,4043.561,N,11159.040,W,1,12,1.0,0.0,M,0.0,M,,*7B
$GPGSA,A,3,01,02,03,04,05,06,07,08,09,10,11,12,1.0,1.0,1.0*30
$GPRMC,154553.396,A,4043.561,N,11159.040,W,038.9,269.0,100120,000.0,W*62
$GPGGA,154554.396,4043.560,N,11159.054,W,1,12,1.0,0.0,M,0.0,M,,*78
$GPGSA,A,3,01,02,03,04,05,06,07,08,09,10,11,12,1.0,1.0,1.0*30
$GPRMC,154554.396,A,4043.560,N,11159.054,W,038.9,269.0,100120,000.0,W*61
$GPGGA,154555.396,4043.560,N,11159.069,W,1,12,1.0,0.0,M,0.0,M,,*77
$GPGSA,A,3,01,02,03,04,05,06,07,08,09,10,11,12,1.0,1.0,1.0*30
$GPRMC,154555.396,A,4043.560,N,11159.069,W,038.9,269.0,100120,000.0,W*6E
$GPGGA,154556.396,4043.560,N,11159.083,W,1,12,1.0,0.0,M,0.0,M,,*70
$GPGSA,A,3,01,02,03,04,05,06,07,08,09,10,11,12,1.0,1.0,1.0*30
$GPRMC,154556.396,A,4043.560,N,11159.083,W,038.9,269.0,100120,000.0,W*69
$GPGGA,154557.396,4043.560,N,11159.097,W,1,12,1.0,0.0,M,0.0,M,,*74
$GPGSA,A,3,01,02,03,04,05,06,07,08,09,10,11,12,1.0,1.0,1.0*30
$GPRMC,154557.396,A,4043.560,N,11159.097,W,038.9,269.0,100120,000.0,W*6D
$GPGGA,154558.396,4043.559,N,11159.111,W,1,12,1.0,0.0,M,0.0,M,,*7E
$GPGSA,A,3,01,02,03,04,05,06,07,08,09,10,11,12,1.0,1.0,1.0*30
$GPRMC,154558.396,A,4043.559,N,11159.111,W,038.9,269.0,100120,000.0,W*67
$GPGGA,154559.396,4043.559,N,11159.126,W,1,12,1.0,0.0,M,0.0,M,,*7B
$GPGSA,A,3,01,02,03,04,05,06,07,08,09,10,11,12,1.0,1.0,1.0*30
$GPRMC,154559.396,A,4043.559,N,11159.126,W,038.9,269.0,100120,000.0,W*62
$GPGGA,154600.396,4043.559,N,11159.140,W,1,12,1.0,0.0,M,0.0,M,,*74
$GPGSA,A,3,01,02,03,04,05,06,07,08,09,10,11,12,1.0,1.0,1.0*30
$GPRMC,154600.396,A,4043.559,N,11159.140,W,038.9,269.0,100120,000.0,W*6D
$GPGGA,154601.396,4043.559,N,11159.154,W,1,12,1.0,0.0,M,0.0,M,,*70
$GPGSA,A,3,01,02,03,04,05,06,07,08,09,10,11,12,1.0,1.0,1.0*30
$GPRMC,154601.396,A,4043.559,N,11159.154,W,038.9,269.0,100120,000.0,W*69
$GPGGA,154602.396,4043.558,N,11159.168,W,1,12,1.0,0.0,M,0.0,M,,*7D
$GPGSA,A,3,01,02,03,04,05,06,07,08,09,10,11,12,1.0,1.0,1.0*30
$GPRMC,154602.396,A,4043.558,N,11159.168,W,038.9,269.0,100120,000.0,W*64
$GPGGA,154603.396,4043.558,N,11159.183,W,1,12,1.0,0.0,M,0.0,M,,*79
$GPGSA,A,3,01,02,03,04,05,06,07,08,09,10,11,12,1.0,1.0,1.0*30
$GPRMC,154603.396,A,4043.558,N,11159.183,W,038.9,269.0,100120,000.0,W*60
$GPGGA,154604.396,4043.558,N,11159.197,W,1,12,1.0,0.0,M,0.0,M,,*7B
$GPGSA,A,3,01,02,03,04,05,06,07,08,09,10,11,12,1.0,1.0,1.0*30
$GPRMC,154604.396,A,4043.558,N,11159.197,W,038.9,269.0,100120,000.0,W*62
$GPGGA,154605.396,4043.558,N,11159.211,W,1,12,1.0,0.0,M,0.0,M,,*77
$GPGSA,A,3,01,02,03,04,05,06,07,08,09,10,11,12,1.0,1.0,1.0*30
$GPRMC,154605.396,A,4043.558,N,11159.211,W,038.9,269.8,100120,000.0,W*66
$GPGGA,154606.396,4043.558,N,11159.225,W,1,12,1.0,0.0,M,0.0,M,,*73
$GPGSA,A,3,01,02,03,04,05,06,07,08,09,10,11,12,1.0,1.0,1.0*30
$GPRMC,154606.396,A,4043.558,N,11159.225,W,038.9,269.8,100120,000.0,W*62
